[
    {
        "ID":1,
        "District":"金門縣烈嶼鄉",
        "Village":"林湖村",
        "Address":"東林24號",
        "Longitude":118.248571,
        "Latitude":24.428328,
        "ShelterName":"金門縣烈嶼鄉林湖村辦公處",
        "ShelterVillages":"林湖村",
        "ShelterCapacity":30,
        "ApplicableDisasterTypes":"水災,震災,土石流,海嘯",
        "ManagerName":"林妙玲",
        "ManagerPhone":"082-364503",
        "Indoor":true,
        "Outdoor":false,
        "SuitableForVulnerable":true
    },
    {
        "ID":2,
        "District":"新竹縣北埔鄉",
        "Village":"南坑村",
        "Address":"9鄰大南坑1-5號",
        "Longitude":121.0561,
        "Latitude":24.6725,
        "ShelterName":"南坑村集會所暨南外社區活動中心",
        "ShelterVillages":"南坑村、外坪村",
        "ShelterCapacity":20,
        "ApplicableDisasterTypes":"水災,震災,土石流",
        "ManagerName":"葉貴霖",
        "ManagerPhone":"03-5805355",
        "Indoor":false,
        "Outdoor":false,
        "SuitableForVulnerable":false
    },
    {
        "ID":3,
        "District":"金門縣烏坵鄉",
        "Village":"小坵村",
        "Address":"無門牌號碼",
        "Longitude":119.47,
        "Latitude":24.98,
        "ShelterName":"烏坵鄉小坵村活動中心",
        "ShelterVillages":"小坵村",
        "ShelterCapacity":20,
        "ApplicableDisasterTypes":null,
        "ManagerName":"莊金輝",
        "ManagerPhone":"82666056",
        "Indoor":false,
        "Outdoor":false,
        "SuitableForVulnerable":false
    },
    {
        "ID":4,
        "District":"金門縣烏坵鄉",
        "Village":"大坵村",
        "Address":"1號",
        "Longitude":119.453178,
        "Latitude":24.988739,
        "ShelterName":"金門縣烏坵鄉公所大廳",
        "ShelterVillages":"烏坵鄉大坵村",
        "ShelterCapacity":30,
        "ApplicableDisasterTypes":null,
        "ManagerName":"林文彩",
        "ManagerPhone":"0826-66056",
        "Indoor":false,
        "Outdoor":false,
        "SuitableForVulnerable":false
    },
    {
        "ID":5,
        "District":"桃園市復興區",
        "Village":"霞雲里",
        "Address":"6鄰22-1號",
        "Longitude":121.406238,
        "Latitude":24.814018,
        "ShelterName":"霞雲社區活動中心",
        "ShelterVillages":"霞雲里",
        "ShelterCapacity":36,
        "ApplicableDisasterTypes":"水災,震災,土石流,海嘯",
        "ManagerName":"呂品秀",
        "ManagerPhone":"03-3821500#124",
        "Indoor":true,
        "Outdoor":false,
        "SuitableForVulnerable":false
    },
    {
        "ID":6,
        "District":"桃園市復興區",
        "Village":"澤仁里",
        "Address":"14鄰中正路168之1號",
        "Longitude":121.351987,
        "Latitude":24.820601,
        "ShelterName":"澤仁里辦公處",
        "ShelterVillages":"澤仁里",
        "ShelterCapacity":40,
        "ApplicableDisasterTypes":"水災,震災,土石流,海嘯",
        "ManagerName":"呂品秀",
        "ManagerPhone":"03-3821500#124",
        "Indoor":true,
        "Outdoor":false,
        "SuitableForVulnerable":false
    },
    {
        "ID":7,
        "District":"桃園市復興區",
        "Village":"奎輝里",
        "Address":"3鄰羅馬路3段355號",
        "Longitude":121.334302,
        "Latitude":24.797047,
        "ShelterName":"奎輝里活動中心",
        "ShelterVillages":"奎輝里",
        "ShelterCapacity":50,
        "ApplicableDisasterTypes":"水災,震災,土石流,海嘯",
        "ManagerName":"呂品秀",
        "ManagerPhone":"03-3821500#124",
        "Indoor":true,
        "Outdoor":false,
        "SuitableForVulnerable":false
    },
    {
        "ID":8,
        "District":"桃園市復興區",
        "Village":"高義里",
        "Address":"6鄰48號",
        "Longitude":121.354462,
        "Latitude":24.706112,
        "ShelterName":"高義教會",
        "ShelterVillages":"高義里",
        "ShelterCapacity":61,
        "ApplicableDisasterTypes":"水災,震災,土石流,海嘯",
        "ManagerName":"呂品秀",
        "ManagerPhone":"03-3821500#124",
        "Indoor":true,
        "Outdoor":false,
        "SuitableForVulnerable":false
    },
    {
        "ID":9,
        "District":"連江縣莒光鄉",
        "Village":"青帆村",
        "Address":"1號",
        "Longitude":119.933712,
        "Latitude":25.969995,
        "ShelterName":"青帆老人活動中心",
        "ShelterVillages":"青帆村",
        "ShelterCapacity":150,
        "ApplicableDisasterTypes":null,
        "ManagerName":"曹以樹",
        "ManagerPhone":"0836-89416",
        "Indoor":false,
        "Outdoor":false,
        "SuitableForVulnerable":false
    },
    {
        "ID":10,
        "District":"連江縣莒光鄉",
        "Village":"青帆村",
        "Address":"18號",
        "Longitude":119.933934,
        "Latitude":25.970819,
        "ShelterName":"敬恆國中小禮堂",
        "ShelterVillages":"青帆村",
        "ShelterCapacity":200,
        "ApplicableDisasterTypes":null,
        "ManagerName":"陳玉嬌",
        "ManagerPhone":"0836-88254",
        "Indoor":false,
        "Outdoor":false,
        "SuitableForVulnerable":false
    },
    {
        "ID":11,
        "District":"連江縣莒光鄉",
        "Village":"大坪村",
        "Address":"4號",
        "Longitude":119.97711,
        "Latitude":25.957484,
        "ShelterName":"東莒國小綜合教室",
        "ShelterVillages":"大坪村",
        "ShelterCapacity":200,
        "ApplicableDisasterTypes":null,
        "ManagerName":"林湘官",
        "ManagerPhone":"0836-89043203",
        "Indoor":false,
        "Outdoor":false,
        "SuitableForVulnerable":false
    },
    {
        "ID":12,
        "District":"桃園市新屋區",
        "Village":"石牌里",
        "Address":"東興路二段568號",
        "Longitude":121.051297,
        "Latitude":26.0,
        "ShelterName":"石牌社區活動中心",
        "ShelterVillages":"石牌里",
        "ShelterCapacity":50,
        "ApplicableDisasterTypes":"水災,震災",
        "ManagerName":"江紘",
        "ManagerPhone":"4778168",
        "Indoor":true,
        "Outdoor":false,
        "SuitableForVulnerable":true
    },
    {
        "ID":13,
        "District":"桃園市觀音區",
        "Village":"草新里",
        "Address":"新生路1462號",
        "Longitude":121.142939,
        "Latitude":25.045941,
        "ShelterName":"草漯國民小學",
        "ShelterVillages":"草漯村、樹林村、保障村",
        "ShelterCapacity":100,
        "ApplicableDisasterTypes":null,
        "ManagerName":"羅淑貞",
        "ManagerPhone":"4830160#51",
        "Indoor":false,
        "Outdoor":false,
        "SuitableForVulnerable":false
    },
    {
        "ID":14,
        "District":"桃園市觀音區",
        "Village":"上大里",
        "Address":"8鄰大湖路一段540號",
        "Longitude":121.146755,
        "Latitude":24.979129,
        "ShelterName":"上大國民小學",
        "ShelterVillages":"上大村、富源村、崙坪村",
        "ShelterCapacity":100,
        "ApplicableDisasterTypes":null,
        "ManagerName":"張秀琪",
        "ManagerPhone":"4901174#510",
        "Indoor":false,
        "Outdoor":false,
        "SuitableForVulnerable":false
    },
    {
        "ID":15,
        "District":"桃園市觀音區",
        "Village":"崙坪里",
        "Address":"崙坪里297之1號",
        "Longitude":121.162676,
        "Latitude":24.999596,
        "ShelterName":"崙坪國民小學",
        "ShelterVillages":"崙坪村、大同村、上大村",
        "ShelterCapacity":100,
        "ApplicableDisasterTypes":null,
        "ManagerName":"吳曉芬",
        "ManagerPhone":"4981286#51",
        "Indoor":false,
        "Outdoor":false,
        "SuitableForVulnerable":false
    },
    {
        "ID":16,
        "District":"桃園市觀音區",
        "Village":"富林里",
        "Address":"大觀路三段466號",
        "Longitude":121.1285,
        "Latitude":25.062195,
        "ShelterName":"富林國民小學",
        "ShelterVillages":"富林村、廣興村、草漯村",
        "ShelterCapacity":100,
        "ApplicableDisasterTypes":null,
        "ManagerName":"王文昌",
        "ManagerPhone":"4839049#51",
        "Indoor":false,
        "Outdoor":false,
        "SuitableForVulnerable":false
    },
    {
        "ID":17,
        "District":"桃園市觀音區",
        "Village":"樹林里",
        "Address":"觀音鄉樹林村新村路二段十二號",
        "Longitude":121.128468,
        "Latitude":25.062176,
        "ShelterName":"樹林國民小學",
        "ShelterVillages":"樹林村、草漯村、富林村",
        "ShelterCapacity":100,
        "ApplicableDisasterTypes":null,
        "ManagerName":"張麗君",
        "ManagerPhone":"4830414#51",
        "Indoor":false,
        "Outdoor":false,
        "SuitableForVulnerable":false
    },
    {
        "ID":18,
        "District":"高雄市前鎮區",
        "Village":"竹中里",
        "Address":"廣西路57號",
        "Longitude":120.32,
        "Latitude":22.615,
        "ShelterName":"高雄市前鎮區光華國民小學",
        "ShelterVillages":"全區綜合調度",
        "ShelterCapacity":300,
        "ApplicableDisasterTypes":"水災,震災,土石流,海嘯",
        "ManagerName":"總務組",
        "ManagerPhone":"7222846",
        "Indoor":false,
        "Outdoor":false,
        "SuitableForVulnerable":true
    },
    {
        "ID":19,
        "District":"臺東縣大武鄉",
        "Village":"大武村",
        "Address":"民族街2巷49號",
        "Longitude":120.905497,
        "Latitude":22.365009,
        "ShelterName":"大武國小",
        "ShelterVillages":"收容大鳥村1-6鄰，15-16鄰",
        "ShelterCapacity":350,
        "ApplicableDisasterTypes":"水災,震災,土石流,海嘯",
        "ManagerName":"陳佩瑜",
        "ManagerPhone":"089-791826",
        "Indoor":true,
        "Outdoor":false,
        "SuitableForVulnerable":true
    },
    {
        "ID":20,
        "District":"苗栗縣頭份市",
        "Village":"尖下里",
        "Address":"尖豐路305號",
        "Longitude":120.894048,
        "Latitude":24.64686,
        "ShelterName":"尖山國小操場",
        "ShelterVillages":"尖山里、尖下里、廣興里",
        "ShelterCapacity":200,
        "ApplicableDisasterTypes":"水災,震災,土石流,海嘯",
        "ManagerName":"李鴻明",
        "ManagerPhone":"037-624474#29",
        "Indoor":false,
        "Outdoor":true,
        "SuitableForVulnerable":true
    },
    {
        "ID":21,
        "District":"高雄市小港區",
        "Village":"鳳源里",
        "Address":"鳳林路207號",
        "Longitude":120.343,
        "Latitude":22.527,
        "ShelterName":"高雄市小港區鳳林國民小學",
        "ShelterVillages":"鳳林、鳳源",
        "ShelterCapacity":300,
        "ApplicableDisasterTypes":"水災,震災,土石流,海嘯",
        "ManagerName":"陳宜亨",
        "ManagerPhone":"8712367＊710",
        "Indoor":false,
        "Outdoor":false,
        "SuitableForVulnerable":false
    },
    {
        "ID":22,
        "District":"桃園市新屋區",
        "Village":"後庄里",
        "Address":"東福路二段515號",
        "Longitude":121.011554,
        "Latitude":26.870923,
        "ShelterName":"後庄社區活動中心",
        "ShelterVillages":"後庄里",
        "ShelterCapacity":50,
        "ApplicableDisasterTypes":"水災,震災",
        "ManagerName":"江紘",
        "ManagerPhone":"4778168",
        "Indoor":true,
        "Outdoor":false,
        "SuitableForVulnerable":true
    },
    {
        "ID":23,
        "District":"桃園市新屋區",
        "Village":"望間里",
        "Address":"4鄰十五間25號",
        "Longitude":121.065984,
        "Latitude":26.87753,
        "ShelterName":"望間社區活動中心",
        "ShelterVillages":"望間里",
        "ShelterCapacity":50,
        "ApplicableDisasterTypes":"水災,震災",
        "ManagerName":"江紘",
        "ManagerPhone":"4778168",
        "Indoor":true,
        "Outdoor":false,
        "SuitableForVulnerable":true
    },
    {
        "ID":24,
        "District":"桃園市新屋區",
        "Village":"社子里",
        "Address":"7鄰3之1號",
        "Longitude":121.085281,
        "Latitude":26.886062,
        "ShelterName":"社子社區活動中心",
        "ShelterVillages":"社子里",
        "ShelterCapacity":50,
        "ApplicableDisasterTypes":"水災",
        "ManagerName":"江紘",
        "ManagerPhone":"4778168",
        "Indoor":true,
        "Outdoor":false,
        "SuitableForVulnerable":true
    },
    {
        "ID":25,
        "District":"桃園市新屋區",
        "Village":"頭洲里",
        "Address":"校前路48號",
        "Longitude":121.130215,
        "Latitude":26.888575,
        "ShelterName":"頭洲社區活動中心",
        "ShelterVillages":"頭洲里",
        "ShelterCapacity":50,
        "ApplicableDisasterTypes":"水災,震災",
        "ManagerName":"江紘",
        "ManagerPhone":"4778168",
        "Indoor":true,
        "Outdoor":false,
        "SuitableForVulnerable":true
    },
    {
        "ID":26,
        "District":"桃園市新屋區",
        "Village":"深圳里",
        "Address":"4鄰20之5號",
        "Longitude":121.007673,
        "Latitude":26.890879,
        "ShelterName":"深圳社區活動中心",
        "ShelterVillages":"深圳里",
        "ShelterCapacity":50,
        "ApplicableDisasterTypes":"水災,震災",
        "ManagerName":"江紘",
        "ManagerPhone":"4778168",
        "Indoor":true,
        "Outdoor":false,
        "SuitableForVulnerable":true
    },
    {
        "ID":27,
        "District":"桃園市新屋區",
        "Village":"東明里",
        "Address":"3鄰5號",
        "Longitude":121.078766,
        "Latitude":26.894742,
        "ShelterName":"東明社區活動中心",
        "ShelterVillages":"東明里",
        "ShelterCapacity":50,
        "ApplicableDisasterTypes":"水災,震災",
        "ManagerName":"江紘",
        "ManagerPhone":"4778168",
        "Indoor":true,
        "Outdoor":false,
        "SuitableForVulnerable":true
    },
    {
        "ID":28,
        "District":"桃園市新屋區",
        "Village":"九斗里",
        "Address":"長祥路1098號",
        "Longitude":121.117328,
        "Latitude":26.896771,
        "ShelterName":"九斗社區活動中心",
        "ShelterVillages":"九斗里",
        "ShelterCapacity":50,
        "ApplicableDisasterTypes":"水災,震災",
        "ManagerName":"江紘",
        "ManagerPhone":"4778168",
        "Indoor":true,
        "Outdoor":false,
        "SuitableForVulnerable":true
    },
    {
        "ID":29,
        "District":"桃園市新屋區",
        "Village":"?榔里",
        "Address":"8鄰9號",
        "Longitude":121.06181,
        "Latitude":26.898658,
        "ShelterName":"?榔社區活動中心",
        "ShelterVillages":"?榔里",
        "ShelterCapacity":50,
        "ApplicableDisasterTypes":"水災,震災",
        "ManagerName":"江紘",
        "ManagerPhone":"4778168",
        "Indoor":true,
        "Outdoor":false,
        "SuitableForVulnerable":true
    },
    {
        "ID":30,
        "District":"桃園市新屋區",
        "Village":"下田里",
        "Address":"4鄰中山西路2段780號",
        "Longitude":121.054326,
        "Latitude":26.908939,
        "ShelterName":"下田社區活動中心",
        "ShelterVillages":"下田里",
        "ShelterCapacity":50,
        "ApplicableDisasterTypes":"水災,震災",
        "ManagerName":"江紘",
        "ManagerPhone":"4778168",
        "Indoor":true,
        "Outdoor":false,
        "SuitableForVulnerable":true
    },
    {
        "ID":31,
        "District":"桃園市新屋區",
        "Village":"永安里",
        "Address":"13鄰保生路55號",
        "Longitude":121.02689,
        "Latitude":26.915734,
        "ShelterName":"永安社區活動中心",
        "ShelterVillages":"永安里",
        "ShelterCapacity":50,
        "ApplicableDisasterTypes":"水災,震災",
        "ManagerName":"江紘",
        "ManagerPhone":"4778168",
        "Indoor":true,
        "Outdoor":false,
        "SuitableForVulnerable":true
    },
    {
        "ID":32,
        "District":"桃園市新屋區",
        "Village":"石磊里",
        "Address":"三民路二段276號",
        "Longitude":121.079829,
        "Latitude":26.921813,
        "ShelterName":"石磊社區活動中心",
        "ShelterVillages":"石磊里",
        "ShelterCapacity":50,
        "ApplicableDisasterTypes":"水災,震災",
        "ManagerName":"江紘",
        "ManagerPhone":"4778168",
        "Indoor":true,
        "Outdoor":false,
        "SuitableForVulnerable":true
    },
    {
        "ID":33,
        "District":"桃園市新屋區",
        "Village":"永興里",
        "Address":"永慶一路273號",
        "Longitude":121.031521,
        "Latitude":26.92647,
        "ShelterName":"永興社區活動中心",
        "ShelterVillages":"永興里",
        "ShelterCapacity":50,
        "ApplicableDisasterTypes":"水災,震災",
        "ManagerName":"江紘",
        "ManagerPhone":"4778168",
        "Indoor":true,
        "Outdoor":false,
        "SuitableForVulnerable":true
    },
    {
        "ID":34,
        "District":"屏東縣霧臺鄉",
        "Village":"大武村",
        "Address":"2鄰小山巷7號",
        "Longitude":120.754782,
        "Latitude":22.757534,
        "ShelterName":"大武社區活動中心",
        "ShelterVillages":"大武村",
        "ShelterCapacity":30,
        "ApplicableDisasterTypes":"水災,土石流",
        "ManagerName":"歐光夫",
        "ManagerPhone":"932451102",
        "Indoor":true,
        "Outdoor":false,
        "SuitableForVulnerable":true
    },
    {
        "ID":35,
        "District":"花蓮縣秀林鄉",
        "Village":"和平村",
        "Address":"和平112號",
        "Longitude":121.748879,
        "Latitude":24.308073,
        "ShelterName":"和平國小",
        "ShelterVillages":"和中部落",
        "ShelterCapacity":250,
        "ApplicableDisasterTypes":"水災,土石流",
        "ManagerName":"蔡金郎",
        "ManagerPhone":"03-868113",
        "Indoor":true,
        "Outdoor":false,
        "SuitableForVulnerable":false
    },
    {
        "ID":36,
        "District":"彰化縣員林市",
        "Village":"中東里",
        "Address":"山腳路五段185巷20號",
        "Longitude":120.599689,
        "Latitude":23.971414,
        "ShelterName":"中東社區活動中心",
        "ShelterVillages":"崙雅里 振興里 林厝里 出水里 湖水里 大峰里 鎮興里 浮圳里 西東里 南東里 中東里 東北里 共12里",
        "ShelterCapacity":30,
        "ApplicableDisasterTypes":"水災,土石流,海嘯",
        "ManagerName":"黃勝裕",
        "ManagerPhone":"8347171",
        "Indoor":false,
        "Outdoor":false,
        "SuitableForVulnerable":false
    },
    {
        "ID":37,
        "District":"彰化縣員林市",
        "Village":"三和里",
        "Address":"育英路103號",
        "Longitude":120.574848,
        "Latitude":23.961057,
        "ShelterName":"崇實高工體育館",
        "ShelterVillages":"中正里 和平里 忠孝里 仁愛里 三橋里 三愛里 三信里 三多里 共8里",
        "ShelterCapacity":80,
        "ApplicableDisasterTypes":"水災,震災,土石流,海嘯",
        "ManagerName":"張文福",
        "ManagerPhone":"8347171",
        "Indoor":false,
        "Outdoor":false,
        "SuitableForVulnerable":false
    },
    {
        "ID":38,
        "District":"彰化縣彰化市",
        "Village":"東芳里",
        "Address":"彰馬路45號",
        "Longitude":120.516345,
        "Latitude":24.062538,
        "ShelterName":"東芳國小",
        "ShelterVillages":"東芳里南安里刺桐里磚?里",
        "ShelterCapacity":145,
        "ApplicableDisasterTypes":"水災,震災,土石流,海嘯",
        "ManagerName":"楊娣雅",
        "ManagerPhone":"72221411710",
        "Indoor":false,
        "Outdoor":false,
        "SuitableForVulnerable":false
    },
    {
        "ID":39,
        "District":"彰化縣員林市",
        "Village":"三義里",
        "Address":"員鹿路245巷112號",
        "Longitude":120.563531,
        "Latitude":23.95268,
        "ShelterName":"三義社區活動中心",
        "ShelterVillages":"三義里 新生里 南平里 南興里 源潭里 大埔里 共6里",
        "ShelterCapacity":200,
        "ApplicableDisasterTypes":"水災,土石流,海嘯",
        "ManagerName":"?淑娟",
        "ManagerPhone":"8347171",
        "Indoor":false,
        "Outdoor":false,
        "SuitableForVulnerable":false
    },
    {
        "ID":40,
        "District":"彰化縣員林市",
        "Village":"三和里",
        "Address":"大同路一段345號",
        "Longitude":120.579502,
        "Latitude":23.963213,
        "ShelterName":"大同國中",
        "ShelterVillages":"中正里 和平里 忠孝里 仁愛里 三橋里 三愛里 三信里 三多里 共8里",
        "ShelterCapacity":200,
        "ApplicableDisasterTypes":"水災,震災,土石流,海嘯",
        "ManagerName":"張文福",
        "ManagerPhone":"8347171",
        "Indoor":false,
        "Outdoor":false,
        "SuitableForVulnerable":false
    },
    {
        "ID":41,
        "District":"彰化縣員林市",
        "Village":"萬年里",
        "Address":"員水路二段313號",
        "Longitude":120.581692,
        "Latitude":23.955187,
        "ShelterName":"員林農工體育館",
        "ShelterVillages":"崙雅里 振興里 林厝里 出水里 湖水里 大峰里 鎮興里 浮圳里 西東里 南東里 中東里 東北里 共12里",
        "ShelterCapacity":200,
        "ApplicableDisasterTypes":"水災,震災,土石流,海嘯",
        "ManagerName":"陳宗虎",
        "ManagerPhone":"8347171",
        "Indoor":false,
        "Outdoor":false,
        "SuitableForVulnerable":false
    },
    {
        "ID":42,
        "District":"彰化縣員林市",
        "Village":"南東里",
        "Address":"員東路二段12號",
        "Longitude":120.587309,
        "Latitude":23.961879,
        "ShelterName":"員林市員東國小",
        "ShelterVillages":"崙雅里 振興里 林厝里 出水里 湖水里 大峰里 鎮興里 浮圳里 西東里 南東里 中東里 東北里 共12里",
        "ShelterCapacity":200,
        "ApplicableDisasterTypes":"水災,震災,土石流,海嘯",
        "ManagerName":"盧佳玉",
        "ManagerPhone":"8347171",
        "Indoor":false,
        "Outdoor":false,
        "SuitableForVulnerable":false
    },
    {
        "ID":43,
        "District":"彰化縣員林市",
        "Village":"南興里",
        "Address":"南潭路2號",
        "Longitude":120.557085,
        "Latitude":23.979184,
        "ShelterName":"員林市員林國中活動中心",
        "ShelterVillages":"三義里 新生里 南平里 南興里 源潭里 大埔里 共6里",
        "ShelterCapacity":200,
        "ApplicableDisasterTypes":"水災,震災,土石流,海嘯",
        "ManagerName":"盧佳玉",
        "ManagerPhone":"8347171",
        "Indoor":false,
        "Outdoor":false,
        "SuitableForVulnerable":false
    },
    {
        "ID":44,
        "District":"彰化縣員林市",
        "Village":"中正里",
        "Address":"三民東街221號",
        "Longitude":120.57921,
        "Latitude":23.960059,
        "ShelterName":"員林市員林國小",
        "ShelterVillages":"中正里 和平里 忠孝里 仁愛里 三橋里 三愛里 三信里 三多里 共8里",
        "ShelterCapacity":300,
        "ApplicableDisasterTypes":"水災,震災,土石流,海嘯",
        "ManagerName":"陳淑莉",
        "ManagerPhone":"8347171",
        "Indoor":false,
        "Outdoor":false,
        "SuitableForVulnerable":false
    },
    {
        "ID":45,
        "District":"臺中市南區",
        "Village":"平和里",
        "Address":"忠明南路與五權南路交叉口",
        "Longitude":120.667553,
        "Latitude":24.119757,
        "ShelterName":"健康公園",
        "ShelterVillages":"南和.永興.積善",
        "ShelterCapacity":7500,
        "ApplicableDisasterTypes":"震災",
        "ManagerName":"劉萬貴",
        "ManagerPhone":"04-22289111-33920",
        "Indoor":false,
        "Outdoor":true,
        "SuitableForVulnerable":true
    },
    {
        "ID":46,
        "District":"屏東縣屏東市",
        "Village":"北勢里",
        "Address":"信義路262號",
        "Longitude":120.49197,
        "Latitude":22.68523,
        "ShelterName":"屏東市信義國小",
        "ShelterVillages":"北勢里",
        "ShelterCapacity":965,
        "ApplicableDisasterTypes":"水災,震災",
        "ManagerName":"朱健華",
        "ManagerPhone":"08-7383628#14",
        "Indoor":true,
        "Outdoor":true,
        "SuitableForVulnerable":true
    },
    {
        "ID":47,
        "District":"臺中市太平區",
        "Village":"黃竹里",
        "Address":"光興路1001號",
        "Longitude":120.7305,
        "Latitude":24.1112,
        "ShelterName":"光隆營區",
        "ShelterVillages":"黃竹里",
        "ShelterCapacity":80,
        "ApplicableDisasterTypes":"水災,土石流",
        "ManagerName":"許仲明少校",
        "ManagerPhone":"546365軍",
        "Indoor":true,
        "Outdoor":true,
        "SuitableForVulnerable":false
    },
    {
        "ID":48,
        "District":"彰化縣彰化市",
        "Village":"福田里",
        "Address":"彰南路五段8號",
        "Longitude":120.613159,
        "Latitude":24.068651,
        "ShelterName":"大快官藝文館",
        "ShelterVillages":"福田里、台鳳里、竹巷里、快官里",
        "ShelterCapacity":45,
        "ApplicableDisasterTypes":"水災,震災,土石流,海嘯",
        "ManagerName":"楊娣雅",
        "ManagerPhone":"04-72221411710",
        "Indoor":false,
        "Outdoor":false,
        "SuitableForVulnerable":false
    },
    {
        "ID":49,
        "District":"彰化縣彰化市",
        "Village":"香山里",
        "Address":"彰南路二段512巷97號",
        "Longitude":120.589342,
        "Latitude":24.08054,
        "ShelterName":"彰德國中勤學樓、育英樓穿堂",
        "ShelterVillages":"香山里",
        "ShelterCapacity":45,
        "ApplicableDisasterTypes":"水災,震災,土石流,海嘯",
        "ManagerName":"楊娣雅",
        "ManagerPhone":"4.72E+11",
        "Indoor":false,
        "Outdoor":false,
        "SuitableForVulnerable":false
    },
    {
        "ID":50,
        "District":"彰化縣彰化市",
        "Village":"介壽里",
        "Address":"介壽新村21號",
        "Longitude":120.551727,
        "Latitude":24.070873,
        "ShelterName":"介壽社區活動中心",
        "ShelterVillages":"介壽里",
        "ShelterCapacity":45,
        "ApplicableDisasterTypes":"水災,震災,土石流,海嘯",
        "ManagerName":"楊娣雅",
        "ManagerPhone":"04-72221411710",
        "Indoor":false,
        "Outdoor":false,
        "SuitableForVulnerable":false
    },
    {
        "ID":51,
        "District":"彰化縣彰化市",
        "Village":"國聖里",
        "Address":"中山路三段608號",
        "Longitude":120.568089,
        "Latitude":24.092292,
        "ShelterName":"國聖國小",
        "ShelterVillages":"國聖里文化里龍山里中山里中正里中庄里三村里古夷里",
        "ShelterCapacity":54,
        "ApplicableDisasterTypes":"水災,震災,土石流,海嘯",
        "ManagerName":"楊娣雅",
        "ManagerPhone":"04-72221411710",
        "Indoor":false,
        "Outdoor":false,
        "SuitableForVulnerable":false
    },
    {
        "ID":52,
        "District":"彰化縣彰化市",
        "Village":"石牌里",
        "Address":"田坑路一段9號",
        "Longitude":120.614942,
        "Latitude":24.058558,
        "ShelterName":"石牌國小",
        "ShelterVillages":"石牌里",
        "ShelterCapacity":63,
        "ApplicableDisasterTypes":"水災,震災,土石流,海嘯",
        "ManagerName":"楊娣雅",
        "ManagerPhone":"04-72221411710",
        "Indoor":false,
        "Outdoor":false,
        "SuitableForVulnerable":false
    },
    {
        "ID":53,
        "District":"彰化縣彰化市",
        "Village":"茄苳里",
        "Address":"茄苳路二段292號",
        "Longitude":120.547944,
        "Latitude":24.10378,
        "ShelterName":"茄苳社區活動中心",
        "ShelterVillages":"茄苳里、寶?里、茄南里",
        "ShelterCapacity":64,
        "ApplicableDisasterTypes":"水災,土石流,海嘯",
        "ManagerName":"楊娣雅",
        "ManagerPhone":"04-72221411710",
        "Indoor":false,
        "Outdoor":false,
        "SuitableForVulnerable":false
    },
    {
        "ID":54,
        "District":"彰化縣彰化市",
        "Village":"田中里",
        "Address":"田中路125號",
        "Longitude":120.604547,
        "Latitude":24.085743,
        "ShelterName":"三民國小",
        "ShelterVillages":"田中里",
        "ShelterCapacity":77,
        "ApplicableDisasterTypes":"水災,震災,土石流,海嘯",
        "ManagerName":"楊娣雅",
        "ManagerPhone":"04-72221411710",
        "Indoor":false,
        "Outdoor":false,
        "SuitableForVulnerable":false
    },
    {
        "ID":55,
        "District":"彰化縣彰化市",
        "Village":"崙平里",
        "Address":"平和七街66號",
        "Longitude":120.529851,
        "Latitude":24.068206,
        "ShelterName":"南北管戲曲音樂館",
        "ShelterVillages":"崙平里",
        "ShelterCapacity":77,
        "ApplicableDisasterTypes":"水災,震災,土石流,海嘯",
        "ManagerName":"施政興",
        "ManagerPhone":"04-7639509",
        "Indoor":false,
        "Outdoor":false,
        "SuitableForVulnerable":false
    },
    {
        "ID":56,
        "District":"彰化縣彰化市",
        "Village":"牛埔里",
        "Address":"彰南路三段226號",
        "Longitude":120.597531,
        "Latitude":24.081368,
        "ShelterName":"牛埔社區活動中心",
        "ShelterVillages":"牛埔里",
        "ShelterCapacity":78,
        "ApplicableDisasterTypes":"水災,震災,土石流,海嘯",
        "ManagerName":"楊娣雅",
        "ManagerPhone":"4.72E+11",
        "Indoor":false,
        "Outdoor":false,
        "SuitableForVulnerable":false
    },
    {
        "ID":57,
        "District":"彰化縣彰化市",
        "Village":"桃源里",
        "Address":"公園路二段102之1號",
        "Longitude":120.559047,
        "Latitude":24.072547,
        "ShelterName":"桃源社區活動中心",
        "ShelterVillages":"桃源里卦山里東興里華陽里復興里",
        "ShelterCapacity":90,
        "ApplicableDisasterTypes":"水災,震災,土石流,海嘯",
        "ManagerName":"楊娣雅",
        "ManagerPhone":"04-72221411710",
        "Indoor":false,
        "Outdoor":false,
        "SuitableForVulnerable":false
    },
    {
        "ID":58,
        "District":"彰化縣彰化市",
        "Village":"南興里",
        "Address":"中山路一段189巷49號",
        "Longitude":120.533189,
        "Latitude":24.056604,
        "ShelterName":"南興社區活動中心",
        "ShelterVillages":"南興里",
        "ShelterCapacity":93,
        "ApplicableDisasterTypes":"水災,震災,土石流,海嘯",
        "ManagerName":"楊娣雅",
        "ManagerPhone":"04-72221411718",
        "Indoor":false,
        "Outdoor":false,
        "SuitableForVulnerable":false
    },
    {
        "ID":59,
        "District":"彰化縣彰化市",
        "Village":"快官里",
        "Address":"彰南路四段566號之1",
        "Longitude":120.612013,
        "Latitude":24.068422,
        "ShelterName":"快官社區活動中心",
        "ShelterVillages":"台鳳里、竹巷里、快官里",
        "ShelterCapacity":115,
        "ApplicableDisasterTypes":"水災,震災,土石流,海嘯",
        "ManagerName":"楊娣雅",
        "ManagerPhone":"04-72221411710",
        "Indoor":false,
        "Outdoor":false,
        "SuitableForVulnerable":false
    },
    {
        "ID":60,
        "District":"彰化縣彰化市",
        "Village":"福山里",
        "Address":"福山街168號",
        "Longitude":120.571394,
        "Latitude":24.082668,
        "ShelterName":"福山社區活動中心",
        "ShelterVillages":"福山里安溪里",
        "ShelterCapacity":177,
        "ApplicableDisasterTypes":"水災,震災,土石流,海嘯",
        "ManagerName":"楊娣雅",
        "ManagerPhone":"04-72221411710",
        "Indoor":false,
        "Outdoor":false,
        "SuitableForVulnerable":false
    },
    {
        "ID":61,
        "District":"彰化縣彰化市",
        "Village":"延和里",
        "Address":"埔西街111號",
        "Longitude":120.538252,
        "Latitude":24.059306,
        "ShelterName":"延和社區活動中心",
        "ShelterVillages":"延和里延平里建寶里",
        "ShelterCapacity":184,
        "ApplicableDisasterTypes":"水災,震災,土石流,海嘯",
        "ManagerName":"楊娣雅",
        "ManagerPhone":"04-72221411710",
        "Indoor":false,
        "Outdoor":false,
        "SuitableForVulnerable":false
    },
    {
        "ID":62,
        "District":"彰化縣彰化市",
        "Village":"阿夷里",
        "Address":"泰和路二段145巷1號",
        "Longitude":120.55168,
        "Latitude":24.092496,
        "ShelterName":"泰和國小",
        "ShelterVillages":"阿夷里、下?里、興北里、信義里、民生里、陽明里、萬安里、新興里、新華里、光復里、和調里",
        "ShelterCapacity":203,
        "ApplicableDisasterTypes":"水災,震災,土石流,海嘯",
        "ManagerName":"楊娣雅",
        "ManagerPhone":"04-72221411710",
        "Indoor":false,
        "Outdoor":false,
        "SuitableForVulnerable":false
    },
    {
        "ID":63,
        "District":"彰化縣彰化市",
        "Village":"延和里",
        "Address":"埔西街107號",
        "Longitude":120.538251,
        "Latitude":24.059274,
        "ShelterName":"彰興國中",
        "ShelterVillages":"延和里延平里建寶里",
        "ShelterCapacity":242,
        "ApplicableDisasterTypes":"水災,震災,土石流,海嘯",
        "ManagerName":"楊娣雅",
        "ManagerPhone":"04-72221411710",
        "Indoor":false,
        "Outdoor":false,
        "SuitableForVulnerable":false
    },
    {
        "ID":64,
        "District":"彰化縣彰化市",
        "Village":"向陽里",
        "Address":"向陽街168號",
        "Longitude":120.52814,
        "Latitude":24.062723,
        "ShelterName":"信義國中小",
        "ShelterVillages":"向陽里南美里平和里",
        "ShelterCapacity":399,
        "ApplicableDisasterTypes":"水災,震災,土石流,海嘯",
        "ManagerName":"楊娣雅",
        "ManagerPhone":"04-7221411710",
        "Indoor":false,
        "Outdoor":false,
        "SuitableForVulnerable":false
    },
    {
        "ID":65,
        "District":"彰化縣和美鎮",
        "Village":"雅溝里",
        "Address":"南軒路359巷7號",
        "Longitude":120.492521,
        "Latitude":24.099707,
        "ShelterName":"雅溝社區活動中心",
        "ShelterVillages":"雅溝",
        "ShelterCapacity":150,
        "ApplicableDisasterTypes":"水災,土石流,海嘯",
        "ManagerName":"張敬堂",
        "ManagerPhone":"7552354",
        "Indoor":false,
        "Outdoor":false,
        "SuitableForVulnerable":false
    },
    {
        "ID":66,
        "District":"臺東縣金峰鄉",
        "Village":"正興村",
        "Address":"5鄰105號No.105,Zhengxing,Jinfeng Township,Taitung County 964,TaiwanR.O.C.",
        "Longitude":120.237198,
        "Latitude":21.201237,
        "ShelterName":"介達國小 Jieda Elementary School",
        "ShelterVillages":"正興村",
        "ShelterCapacity":100,
        "ApplicableDisasterTypes":null,
        "ManagerName":"田桂香",
        "ManagerPhone":"089-781583",
        "Indoor":true,
        "Outdoor":false,
        "SuitableForVulnerable":false
    },
    {
        "ID":67,
        "District":"新竹縣湖口鄉",
        "Village":"信勢村",
        "Address":"成功路360號",
        "Longitude":121.0376,
        "Latitude":21.9002,
        "ShelterName":"湖口鄉信勢國小禮堂",
        "ShelterVillages":"信勢村、德盛村、波羅村",
        "ShelterCapacity":385,
        "ApplicableDisasterTypes":"震災,土石流,海嘯",
        "ManagerName":"林志華",
        "ManagerPhone":"03-5993911",
        "Indoor":true,
        "Outdoor":false,
        "SuitableForVulnerable":true
    },
    {
        "ID":68,
        "District":"屏東縣滿州鄉",
        "Village":"港口村",
        "Address":"港口路42號",
        "Longitude":120.8271,
        "Latitude":21.9912,
        "ShelterName":"港口社區活動中心",
        "ShelterVillages":"港口村",
        "ShelterCapacity":50,
        "ApplicableDisasterTypes":"水災,土石流",
        "ManagerName":"楊秀蘭",
        "ManagerPhone":"08-8801356",
        "Indoor":true,
        "Outdoor":false,
        "SuitableForVulnerable":true
    },
    {
        "ID":69,
        "District":"屏東縣恆春鎮",
        "Village":"城南里",
        "Address":"文化路79號",
        "Longitude":120.7475,
        "Latitude":22.0031,
        "ShelterName":"恆春國中收容所",
        "ShelterVillages":"城南里",
        "ShelterCapacity":1400,
        "ApplicableDisasterTypes":"水災,震災,土石流,海嘯",
        "ManagerName":"郭君毓",
        "ManagerPhone":"08-8892039",
        "Indoor":true,
        "Outdoor":false,
        "SuitableForVulnerable":true
    },
    {
        "ID":70,
        "District":"屏東縣恆春鎮",
        "Village":"城南里",
        "Address":"天文路1號",
        "Longitude":120.7474,
        "Latitude":22.0038,
        "ShelterName":"恆春鎮公所",
        "ShelterVillages":"城南里",
        "ShelterCapacity":220,
        "ApplicableDisasterTypes":"水災,震災,土石流,海嘯",
        "ManagerName":"洪合益",
        "ManagerPhone":"08-8896883",
        "Indoor":true,
        "Outdoor":false,
        "SuitableForVulnerable":true
    },
    {
        "ID":71,
        "District":"屏東縣滿州鄉",
        "Village":"永靖村",
        "Address":"庄內路33巷8-1號",
        "Longitude":120.8092,
        "Latitude":22.0052,
        "ShelterName":"永靖社區活動中心",
        "ShelterVillages":"永靖村",
        "ShelterCapacity":30,
        "ApplicableDisasterTypes":"水災,土石流,海嘯",
        "ManagerName":"潘一福",
        "ManagerPhone":"08-8802248",
        "Indoor":true,
        "Outdoor":false,
        "SuitableForVulnerable":false
    },
    {
        "ID":72,
        "District":"屏東縣滿州鄉",
        "Village":"永靖村",
        "Address":"新庄路25號",
        "Longitude":120.817377,
        "Latitude":22.005679,
        "ShelterName":"永港國民小學",
        "ShelterVillages":"永靖村",
        "ShelterCapacity":100,
        "ApplicableDisasterTypes":"水災,土石流,海嘯",
        "ManagerName":"王嚲駿",
        "ManagerPhone":"08-8801125#14",
        "Indoor":true,
        "Outdoor":true,
        "SuitableForVulnerable":true
    },
    {
        "ID":73,
        "District":"屏東縣恆春鎮",
        "Village":"城北里",
        "Address":"北門路39巷26號",
        "Longitude":120.7466,
        "Latitude":22.0064,
        "ShelterName":"甯K國小收容所",
        "ShelterVillages":"城北里",
        "ShelterCapacity":200,
        "ApplicableDisasterTypes":"水災,震災,土石流,海嘯",
        "ManagerName":"蔡迪偉",
        "ManagerPhone":"08-8892035",
        "Indoor":true,
        "Outdoor":false,
        "SuitableForVulnerable":true
    },
    {
        "ID":74,
        "District":"屏東縣恆春鎮",
        "Village":"城西里",
        "Address":"西門路146號",
        "Longitude":120.7442,
        "Latitude":22.0087,
        "ShelterName":"僑勇國小收容所",
        "ShelterVillages":"城西里",
        "ShelterCapacity":430,
        "ApplicableDisasterTypes":"水災,震災,土石流,海嘯",
        "ManagerName":"周淑琴",
        "ManagerPhone":"08-8893034",
        "Indoor":true,
        "Outdoor":false,
        "SuitableForVulnerable":true
    },
    {
        "ID":75,
        "District":"屏東縣滿州鄉",
        "Village":"滿州村",
        "Address":"中山路39號",
        "Longitude":120.838101,
        "Latitude":22.020382,
        "ShelterName":"滿州國民小學",
        "ShelterVillages":"滿州村",
        "ShelterCapacity":100,
        "ApplicableDisasterTypes":"水災,震災,土石流,海嘯",
        "ManagerName":"徐培祥",
        "ManagerPhone":"08-8801162#14",
        "Indoor":true,
        "Outdoor":true,
        "SuitableForVulnerable":true
    },
    {
        "ID":76,
        "District":"屏東縣滿州鄉",
        "Village":"滿州村",
        "Address":"中山路43號",
        "Longitude":120.8386,
        "Latitude":22.0209,
        "ShelterName":"屏東縣滿州鄉公所",
        "ShelterVillages":"滿州村、里德村",
        "ShelterCapacity":30,
        "ApplicableDisasterTypes":"水災,土石流,海嘯",
        "ManagerName":"羅美娟",
        "ManagerPhone":"08-8801105#703",
        "Indoor":true,
        "Outdoor":false,
        "SuitableForVulnerable":true
    },
    {
        "ID":77,
        "District":"臺東縣蘭嶼鄉",
        "Village":"紅頭村",
        "Address":"臺東縣蘭嶼鄉紅頭村1-1號",
        "Longitude":121.5546,
        "Latitude":22.0211,
        "ShelterName":"舊蘭嶼國小",
        "ShelterVillages":"紅頭村",
        "ShelterCapacity":100,
        "ApplicableDisasterTypes":"水災,土石流,海嘯",
        "ManagerName":"周孋珠",
        "ManagerPhone":"（089）731633",
        "Indoor":true,
        "Outdoor":false,
        "SuitableForVulnerable":false
    },
    {
        "ID":78,
        "District":"屏東縣滿州鄉",
        "Village":"滿州村",
        "Address":"中山路107號",
        "Longitude":120.8371,
        "Latitude":22.0233,
        "ShelterName":"滿州社區活動中心",
        "ShelterVillages":"滿州村",
        "ShelterCapacity":30,
        "ApplicableDisasterTypes":"水災,土石流,海嘯",
        "ManagerName":"潘啟元",
        "ManagerPhone":"08-8801375",
        "Indoor":true,
        "Outdoor":false,
        "SuitableForVulnerable":true
    },
    {
        "ID":79,
        "District":"屏東縣滿州鄉",
        "Village":"滿州村",
        "Address":"中山路152號",
        "Longitude":120.8377,
        "Latitude":22.0243,
        "ShelterName":"屏東縣滿州鄉圖書館",
        "ShelterVillages":"滿州村、永靖村",
        "ShelterCapacity":100,
        "ApplicableDisasterTypes":"水災,土石流,海嘯",
        "ManagerName":"王淑娟",
        "ManagerPhone":"08-8801105#302",
        "Indoor":true,
        "Outdoor":false,
        "SuitableForVulnerable":true
    },
    {
        "ID":80,
        "District":"屏東縣滿州鄉",
        "Village":"滿州村",
        "Address":"文化路32號",
        "Longitude":120.839695,
        "Latitude":22.024499,
        "ShelterName":"滿州國民中學",
        "ShelterVillages":"滿州村 里德村",
        "ShelterCapacity":100,
        "ApplicableDisasterTypes":"水災,震災,土石流,海嘯",
        "ManagerName":"簡亞藍",
        "ManagerPhone":"08-8801106#14",
        "Indoor":true,
        "Outdoor":true,
        "SuitableForVulnerable":true
    },
    {
        "ID":81,
        "District":"臺東縣蘭嶼鄉",
        "Village":"紅頭村",
        "Address":"臺東縣蘭嶼鄉紅頭村漁人147號",
        "Longitude":121.539,
        "Latitude":22.026,
        "ShelterName":"蘭恩活動中心",
        "ShelterVillages":"紅頭村漁人部落",
        "ShelterCapacity":500,
        "ApplicableDisasterTypes":"水災,震災,土石流",
        "ManagerName":"希瑪拉歐斯執行長",
        "ManagerPhone":"（089）732073",
        "Indoor":true,
        "Outdoor":false,
        "SuitableForVulnerable":false
    },
    {
        "ID":82,
        "District":"臺東縣蘭嶼鄉",
        "Village":"紅頭村",
        "Address":"1號 之1",
        "Longitude":121.5266,
        "Latitude":22.0302,
        "ShelterName":"蘭嶼國民小學",
        "ShelterVillages":"蘭嶼國小附近住戶",
        "ShelterCapacity":100,
        "ApplicableDisasterTypes":"水災,震災,土石流,海嘯",
        "ManagerName":"許淑貞",
        "ManagerPhone":"（089）731576",
        "Indoor":true,
        "Outdoor":false,
        "SuitableForVulnerable":true
    },
    {
        "ID":83,
        "District":"臺東縣蘭嶼鄉",
        "Village":"椰油村",
        "Address":"1號",
        "Longitude":121.5176,
        "Latitude":22.0453,
        "ShelterName":"椰油國民小學",
        "ShelterVillages":"椰油國小附近住戶",
        "ShelterCapacity":100,
        "ApplicableDisasterTypes":"水災,震災,土石流",
        "ManagerName":"蔡美英",
        "ManagerPhone":"（089）732017",
        "Indoor":true,
        "Outdoor":false,
        "SuitableForVulnerable":true
    },
    {
        "ID":84,
        "District":"臺東縣蘭嶼鄉",
        "Village":"椰油村",
        "Address":"臺東縣蘭嶼鄉椰油村34號",
        "Longitude":121.5126,
        "Latitude":22.0494,
        "ShelterName":"蘭嶼完全高級中學",
        "ShelterVillages":"椰油村",
        "ShelterCapacity":500,
        "ApplicableDisasterTypes":"水災,震災,土石流",
        "ManagerName":"鍾蘭芬",
        "ManagerPhone":"（089）732016#203",
        "Indoor":true,
        "Outdoor":false,
        "SuitableForVulnerable":false
    },
    {
        "ID":85,
        "District":"屏東縣車城鄉",
        "Village":"保力村",
        "Address":"保力路30號",
        "Longitude":120.7275,
        "Latitude":22.0561,
        "ShelterName":"屏東縣立車城國小保力分校",
        "ShelterVillages":"保力村、統埔村",
        "ShelterCapacity":63,
        "ApplicableDisasterTypes":"水災,震災,海嘯",
        "ManagerName":"王菀珊",
        "ManagerPhone":"08-8821009",
        "Indoor":true,
        "Outdoor":false,
        "SuitableForVulnerable":true
    },
    {
        "ID":86,
        "District":"屏東縣車城鄉",
        "Village":"埔墘村",
        "Address":"埔墘路38號",
        "Longitude":120.7118,
        "Latitude":22.0567,
        "ShelterName":"屏東縣立車城國小射寮分校",
        "ShelterVillages":"後灣村、射寮村、埔墘村、新街村",
        "ShelterCapacity":63,
        "ApplicableDisasterTypes":"水災,震災",
        "ManagerName":"董倫賢",
        "ManagerPhone":"08-8821010",
        "Indoor":true,
        "Outdoor":false,
        "SuitableForVulnerable":true
    },
    {
        "ID":87,
        "District":"屏東縣車城鄉",
        "Village":"福興村",
        "Address":"新興路42號",
        "Longitude":120.7165,
        "Latitude":22.0729,
        "ShelterName":"屏東縣立車城國中",
        "ShelterVillages":"福興村、福安村、統埔村",
        "ShelterCapacity":350,
        "ApplicableDisasterTypes":"水災,震災,海嘯",
        "ManagerName":"陳忠能",
        "ManagerPhone":"08-8821045",
        "Indoor":true,
        "Outdoor":false,
        "SuitableForVulnerable":true
    },
    {
        "ID":88,
        "District":"屏東縣牡丹鄉",
        "Village":"四林村",
        "Address":"四林路80號",
        "Longitude":120.8139,
        "Latitude":22.0731,
        "ShelterName":"高士國小牡林分校",
        "ShelterVillages":"四林村",
        "ShelterCapacity":304,
        "ApplicableDisasterTypes":"水災,震災,土石流,海嘯,核子事故",
        "ManagerName":"曾村長蘭妹",
        "ManagerPhone":"08-8811160",
        "Indoor":true,
        "Outdoor":true,
        "SuitableForVulnerable":true
    },
    {
        "ID":89,
        "District":"屏東縣滿州鄉",
        "Village":"長樂村",
        "Address":"和平路21號",
        "Longitude":120.8258,
        "Latitude":22.0742,
        "ShelterName":"長樂村長壽俱樂部",
        "ShelterVillages":"長樂社區",
        "ShelterCapacity":50,
        "ApplicableDisasterTypes":"水災,土石流,海嘯",
        "ManagerName":"陳秀華",
        "ManagerPhone":"08-8811815",
        "Indoor":true,
        "Outdoor":false,
        "SuitableForVulnerable":true
    },
    {
        "ID":90,
        "District":"屏東縣車城鄉",
        "Village":"福興村",
        "Address":"中山路66號",
        "Longitude":120.7146,
        "Latitude":22.0749,
        "ShelterName":"屏東縣立車城國小",
        "ShelterVillages":"福興村、福安村、田中村、海口村",
        "ShelterCapacity":250,
        "ApplicableDisasterTypes":"水災,震災,海嘯",
        "ManagerName":"徐志明",
        "ManagerPhone":"08-8821006",
        "Indoor":true,
        "Outdoor":false,
        "SuitableForVulnerable":true
    },
    {
        "ID":91,
        "District":"屏東縣滿州鄉",
        "Village":"長樂村",
        "Address":"大公路35號",
        "Longitude":120.8286,
        "Latitude":22.0755,
        "ShelterName":"長樂國小",
        "ShelterVillages":"分水嶺社區",
        "ShelterCapacity":120,
        "ApplicableDisasterTypes":"水災,土石流,海嘯",
        "ManagerName":"楊惠芳",
        "ManagerPhone":"08-8811045#14",
        "Indoor":true,
        "Outdoor":true,
        "SuitableForVulnerable":false
    },
    {
        "ID":92,
        "District":"屏東縣車城鄉",
        "Village":"福安村",
        "Address":"福安路5之1號",
        "Longitude":120.7119,
        "Latitude":22.0766,
        "ShelterName":"車城福安宮香客大樓",
        "ShelterVillages":"福興村、福安村、田中村、海口村",
        "ShelterCapacity":100,
        "ApplicableDisasterTypes":"水災,震災,海嘯",
        "ManagerName":"陳泰崇",
        "ManagerPhone":"08-8821345",
        "Indoor":true,
        "Outdoor":false,
        "SuitableForVulnerable":true
    },
    {
        "ID":93,
        "District":"臺東縣蘭嶼鄉",
        "Village":"朗島村",
        "Address":"臺東縣蘭嶼鄉朗島村17號",
        "Longitude":121.5286,
        "Latitude":22.0792,
        "ShelterName":"朗島國小",
        "ShelterVillages":"朗島村",
        "ShelterCapacity":100,
        "ApplicableDisasterTypes":"水災,震災,土石流",
        "ManagerName":"陳客宏",
        "ManagerPhone":"89732019",
        "Indoor":true,
        "Outdoor":false,
        "SuitableForVulnerable":true
    },
    {
        "ID":94,
        "District":"屏東縣車城鄉",
        "Village":"溫泉村",
        "Address":"文化路23號",
        "Longitude":120.7487,
        "Latitude":22.096,
        "ShelterName":"屏東縣立車城國小溫泉分校",
        "ShelterVillages":"溫泉村",
        "ShelterCapacity":63,
        "ApplicableDisasterTypes":"水災,震災,海嘯",
        "ManagerName":"邱麗文",
        "ManagerPhone":"08-8821005",
        "Indoor":true,
        "Outdoor":false,
        "SuitableForVulnerable":true
    },
    {
        "ID":95,
        "District":"屏東縣滿州鄉",
        "Village":"九棚村",
        "Address":"九棚路大愛巷6號",
        "Longitude":120.87378,
        "Latitude":22.111079,
        "ShelterName":"九棚永久屋大愛基地活動中心",
        "ShelterVillages":"九棚村",
        "ShelterCapacity":100,
        "ApplicableDisasterTypes":"水災,震災,土石流",
        "ManagerName":"羅美娟",
        "ManagerPhone":"08-8801105#703",
        "Indoor":true,
        "Outdoor":true,
        "SuitableForVulnerable":false
    },
    {
        "ID":96,
        "District":"屏東縣牡丹鄉",
        "Village":"高士村",
        "Address":"高士路29號",
        "Longitude":120.847,
        "Latitude":22.1248,
        "ShelterName":"高士國小",
        "ShelterVillages":"高士村",
        "ShelterCapacity":350,
        "ApplicableDisasterTypes":"水災,震災,土石流,海嘯",
        "ManagerName":"李村長德福",
        "ManagerPhone":"08-8810497",
        "Indoor":true,
        "Outdoor":true,
        "SuitableForVulnerable":true
    },
    {
        "ID":97,
        "District":"屏東縣牡丹鄉",
        "Village":"石門村",
        "Address":"石門路18號",
        "Longitude":120.774,
        "Latitude":22.1254,
        "ShelterName":"石門村活動中心",
        "ShelterVillages":"石門村",
        "ShelterCapacity":100,
        "ApplicableDisasterTypes":"水災,震災,土石流,海嘯",
        "ManagerName":"林村長一江",
        "ManagerPhone":"08-8831045",
        "Indoor":true,
        "Outdoor":false,
        "SuitableForVulnerable":true
    },
    {
        "ID":98,
        "District":"屏東縣滿州鄉",
        "Village":"港仔村",
        "Address":"港仔路67號",
        "Longitude":120.8815,
        "Latitude":22.1334,
        "ShelterName":"港仔活動中心",
        "ShelterVillages":"港仔村",
        "ShelterCapacity":50,
        "ApplicableDisasterTypes":"水災,土石流",
        "ManagerName":"鍾登讚",
        "ManagerPhone":"08-8810429",
        "Indoor":true,
        "Outdoor":false,
        "SuitableForVulnerable":true
    },
    {
        "ID":99,
        "District":"屏東縣獅子鄉",
        "Village":"竹坑村",
        "Address":"竹坑一巷1鄰8號",
        "Longitude":120.7012,
        "Latitude":22.1454,
        "ShelterName":"竹坑活動中心",
        "ShelterVillages":"竹坑村",
        "ShelterCapacity":40,
        "ApplicableDisasterTypes":"水災,震災,土石流",
        "ManagerName":"蔡錫金",
        "ManagerPhone":"08-8770106",
        "Indoor":true,
        "Outdoor":false,
        "SuitableForVulnerable":true
    },
    {
        "ID":100,
        "District":"屏東縣牡丹鄉",
        "Village":"牡丹村",
        "Address":"牡丹路93號",
        "Longitude":120.8377,
        "Latitude":22.1766,
        "ShelterName":"牡丹國小",
        "ShelterVillages":"牡丹村",
        "ShelterCapacity":350,
        "ApplicableDisasterTypes":"水災,震災,土石流,海嘯",
        "ManagerName":"葉村長德生",
        "ManagerPhone":"08-8830057",
        "Indoor":true,
        "Outdoor":true,
        "SuitableForVulnerable":true
    },
    {
        "ID":101,
        "District":"屏東縣枋山鄉",
        "Village":"善餘村",
        "Address":"光復24號",
        "Longitude":120.6922,
        "Latitude":22.1902,
        "ShelterName":"楓港國民小學",
        "ShelterVillages":"善餘村",
        "ShelterCapacity":90,
        "ApplicableDisasterTypes":"水災,震災,土石流,海嘯",
        "ManagerName":"黃志宏",
        "ManagerPhone":"08-8771158",
        "Indoor":true,
        "Outdoor":false,
        "SuitableForVulnerable":true
    },
    {
        "ID":102,
        "District":"屏東縣牡丹鄉",
        "Village":"旭海村",
        "Address":"旭海路93-1號",
        "Longitude":120.8786,
        "Latitude":22.1917,
        "ShelterName":"旭海村活動中心",
        "ShelterVillages":"旭海村",
        "ShelterCapacity":250,
        "ApplicableDisasterTypes":"水災,震災,土石流",
        "ManagerName":"潘村長呈清",
        "ManagerPhone":"08-8830117",
        "Indoor":true,
        "Outdoor":true,
        "SuitableForVulnerable":true
    },
    {
        "ID":103,
        "District":"屏東縣枋山鄉",
        "Village":"楓港村",
        "Address":"村舊庄1-2號",
        "Longitude":120.6895,
        "Latitude":22.193,
        "ShelterName":"楓港老人文康中心",
        "ShelterVillages":"楓港村",
        "ShelterCapacity":80,
        "ApplicableDisasterTypes":"水災,震災,土石流,海嘯",
        "ManagerName":"鄭美紋",
        "ManagerPhone":"08-8772073",
        "Indoor":true,
        "Outdoor":false,
        "SuitableForVulnerable":true
    },
    {
        "ID":104,
        "District":"屏東縣獅子鄉",
        "Village":"楓林村",
        "Address":"楓林二巷22之2號",
        "Longitude":120.7038,
        "Latitude":22.2022,
        "ShelterName":"楓林國小",
        "ShelterVillages":"楓林村",
        "ShelterCapacity":50,
        "ApplicableDisasterTypes":"水災,震災,土石流",
        "ManagerName":"梁恆毅",
        "ManagerPhone":"08-8771371",
        "Indoor":true,
        "Outdoor":false,
        "SuitableForVulnerable":true
    },
    {
        "ID":105,
        "District":"屏東縣獅子鄉",
        "Village":"丹路村",
        "Address":"丹路一巷39號",
        "Longitude":120.7515,
        "Latitude":22.2034,
        "ShelterName":"丹路國小",
        "ShelterVillages":"丹路村",
        "ShelterCapacity":50,
        "ApplicableDisasterTypes":"水災,震災,土石流",
        "ManagerName":"蔡金樹",
        "ManagerPhone":"08-8771144",
        "Indoor":true,
        "Outdoor":true,
        "SuitableForVulnerable":true
    },
    {
        "ID":106,
        "District":"屏東縣獅子鄉",
        "Village":"楓林村",
        "Address":"舊庄280號",
        "Longitude":120.7014,
        "Latitude":22.2051,
        "ShelterName":"獅子鄉立綜合體育館",
        "ShelterVillages":"全鄉",
        "ShelterCapacity":100,
        "ApplicableDisasterTypes":"水災,震災,土石流",
        "ManagerName":"朱元龍",
        "ManagerPhone":"08-8771129#25",
        "Indoor":true,
        "Outdoor":false,
        "SuitableForVulnerable":true
    },
    {
        "ID":107,
        "District":"屏東縣牡丹鄉",
        "Village":"東源村",
        "Address":"東源路6號",
        "Longitude":120.851,
        "Latitude":22.2052,
        "ShelterName":"東源村活動中心",
        "ShelterVillages":"東源村",
        "ShelterCapacity":250,
        "ApplicableDisasterTypes":"水災,震災,土石流,海嘯",
        "ManagerName":"賴村長光明",
        "ManagerPhone":"08-8830116",
        "Indoor":true,
        "Outdoor":true,
        "SuitableForVulnerable":true
    },
    {
        "ID":108,
        "District":"屏東縣獅子鄉",
        "Village":"內文村",
        "Address":"3鄰26號",
        "Longitude":120.8507,
        "Latitude":22.2183,
        "ShelterName":"內文活動中心",
        "ShelterVillages":"內文村",
        "ShelterCapacity":40,
        "ApplicableDisasterTypes":"水災,震災,土石流",
        "ManagerName":"江新春",
        "ManagerPhone":"08-8700005",
        "Indoor":true,
        "Outdoor":false,
        "SuitableForVulnerable":true
    },
    {
        "ID":109,
        "District":"屏東縣獅子鄉",
        "Village":"草埔村",
        "Address":"6鄰64號",
        "Longitude":120.8014,
        "Latitude":22.2341,
        "ShelterName":"草埔活動中心",
        "ShelterVillages":"草埔村",
        "ShelterCapacity":40,
        "ApplicableDisasterTypes":"水災,土石流",
        "ManagerName":"朱山櫻",
        "ManagerPhone":"08-8701163",
        "Indoor":true,
        "Outdoor":false,
        "SuitableForVulnerable":true
    },
    {
        "ID":110,
        "District":"屏東縣枋山鄉",
        "Village":"枋山村",
        "Address":"枋山路82號",
        "Longitude":120.6524235,
        "Latitude":22.26396799,
        "ShelterName":"枋山鄉公所",
        "ShelterVillages":"枋山村",
        "ShelterCapacity":50,
        "ApplicableDisasterTypes":"水災,震災,土石流,海嘯",
        "ManagerName":"陳緯玲",
        "ManagerPhone":"07-8761107",
        "Indoor":true,
        "Outdoor":false,
        "SuitableForVulnerable":true
    },
    {
        "ID":111,
        "District":"屏東縣枋山鄉",
        "Village":"枋山村",
        "Address":"國中路1號",
        "Longitude":120.6606,
        "Latitude":22.2643,
        "ShelterName":"枋寮高中正成分校",
        "ShelterVillages":"枋山村",
        "ShelterCapacity":150,
        "ApplicableDisasterTypes":"水災,土石流,海嘯",
        "ManagerName":"徐敏雄",
        "ManagerPhone":"08-8761140",
        "Indoor":true,
        "Outdoor":false,
        "SuitableForVulnerable":true
    },
    {
        "ID":112,
        "District":"臺東縣達仁鄉",
        "Village":"南田村",
        "Address":"臺東縣達仁鄉南田村3鄰20號",
        "Longitude":120.890256,
        "Latitude":22.276682,
        "ShelterName":"南田基督教會",
        "ShelterVillages":"南田村",
        "ShelterCapacity":50,
        "ApplicableDisasterTypes":null,
        "ManagerName":"高富源",
        "ManagerPhone":"089-702116",
        "Indoor":false,
        "Outdoor":false,
        "SuitableForVulnerable":false
    },
    {
        "ID":113,
        "District":"臺東縣達仁鄉",
        "Village":"森永村",
        "Address":"臺東縣達仁鄉森永村3鄰31號",
        "Longitude":120.864826,
        "Latitude":22.280641,
        "ShelterName":"森永活動中心",
        "ShelterVillages":"森永村",
        "ShelterCapacity":100,
        "ApplicableDisasterTypes":null,
        "ManagerName":"歐慧玲",
        "ManagerPhone":"089-702136",
        "Indoor":false,
        "Outdoor":false,
        "SuitableForVulnerable":false
    },
    {
        "ID":114,
        "District":"臺東縣達仁鄉",
        "Village":"南田村",
        "Address":"臺東縣達仁鄉南田村10之2號",
        "Longitude":120.888972,
        "Latitude":22.286514,
        "ShelterName":"南田活動中心",
        "ShelterVillages":"南田村",
        "ShelterCapacity":100,
        "ApplicableDisasterTypes":null,
        "ManagerName":"村長 楊陳田龍",
        "ManagerPhone":"089-702285",
        "Indoor":false,
        "Outdoor":false,
        "SuitableForVulnerable":false
    },
    {
        "ID":115,
        "District":"臺東縣達仁鄉",
        "Village":"森永村",
        "Address":"臺東縣達仁鄉安朔村2鄰20號",
        "Longitude":120.866016,
        "Latitude":22.292996,
        "ShelterName":"安朔基督教會",
        "ShelterVillages":"安朔村",
        "ShelterCapacity":50,
        "ApplicableDisasterTypes":null,
        "ManagerName":"林正行",
        "ManagerPhone":"089-702277",
        "Indoor":true,
        "Outdoor":false,
        "SuitableForVulnerable":false
    },
    {
        "ID":116,
        "District":"臺東縣達仁鄉",
        "Village":"安朔村",
        "Address":"6鄰安朔路114號",
        "Longitude":120.867753,
        "Latitude":22.293497,
        "ShelterName":"安朔集會所",
        "ShelterVillages":"安朔村",
        "ShelterCapacity":50,
        "ApplicableDisasterTypes":null,
        "ManagerName":"村長 汪淑惠",
        "ManagerPhone":"089-702071",
        "Indoor":false,
        "Outdoor":false,
        "SuitableForVulnerable":false
    },
    {
        "ID":117,
        "District":"臺東縣達仁鄉",
        "Village":"安朔村",
        "Address":"臺東縣達仁鄉安朔村8鄰113號",
        "Longitude":120.868276,
        "Latitude":22.294292,
        "ShelterName":"安朔國小",
        "ShelterVillages":"安朔村",
        "ShelterCapacity":200,
        "ApplicableDisasterTypes":null,
        "ManagerName":"校長顏正一",
        "ManagerPhone":"089-702275",
        "Indoor":true,
        "Outdoor":false,
        "SuitableForVulnerable":true
    },
    {
        "ID":118,
        "District":"臺東縣達仁鄉",
        "Village":"安朔村",
        "Address":"9鄰復興路14號",
        "Longitude":120.883062,
        "Latitude":22.297005,
        "ShelterName":"達仁鄉公所禮堂",
        "ShelterVillages":"安朔村、南田村、森永村",
        "ShelterCapacity":100,
        "ApplicableDisasterTypes":null,
        "ManagerName":"黃恩潔",
        "ManagerPhone":"089-702249",
        "Indoor":false,
        "Outdoor":false,
        "SuitableForVulnerable":false
    },
    {
        "ID":119,
        "District":"臺東縣卑南鄉",
        "Village":"東興村",
        "Address":"東興村東園一街40號",
        "Longitude":121.016385,
        "Latitude":22.301654,
        "ShelterName":"大南國民小學",
        "ShelterVillages":"東興村",
        "ShelterCapacity":50,
        "ApplicableDisasterTypes":null,
        "ManagerName":"李玉如",
        "ManagerPhone":"089-382402",
        "Indoor":false,
        "Outdoor":false,
        "SuitableForVulnerable":false
    },
    {
        "ID":120,
        "District":"臺東縣大武鄉",
        "Village":"南興村",
        "Address":"達興路173號",
        "Longitude":120.8867,
        "Latitude":22.3104,
        "ShelterName":"南興村社區活動中心",
        "ShelterVillages":"南興社區",
        "ShelterCapacity":200,
        "ApplicableDisasterTypes":"水災,土石流,海嘯",
        "ManagerName":"鍾皓如",
        "ManagerPhone":"089-702165",
        "Indoor":true,
        "Outdoor":false,
        "SuitableForVulnerable":false
    },
    {
        "ID":121,
        "District":"屏東縣琉球鄉",
        "Village":"南福村",
        "Address":"忠孝路1-10號",
        "Longitude":120.3634,
        "Latitude":22.3284,
        "ShelterName":"南福社區活動中心",
        "ShelterVillages":"南福村",
        "ShelterCapacity":50,
        "ApplicableDisasterTypes":"水災,震災,土石流,海嘯",
        "ManagerName":"黃文裕",
        "ManagerPhone":"8611579",
        "Indoor":true,
        "Outdoor":false,
        "SuitableForVulnerable":true
    },
    {
        "ID":122,
        "District":"屏東縣枋山鄉",
        "Village":"加祿村",
        "Address":"會社28號",
        "Longitude":120.6211,
        "Latitude":22.3302,
        "ShelterName":"加祿國民小學",
        "ShelterVillages":"加祿村",
        "ShelterCapacity":60,
        "ApplicableDisasterTypes":"水災,震災,土石流,海嘯",
        "ManagerName":"翁和正",
        "ManagerPhone":"08-8720060",
        "Indoor":true,
        "Outdoor":false,
        "SuitableForVulnerable":true
    },
    {
        "ID":123,
        "District":"屏東縣琉球鄉",
        "Village":"大福村",
        "Address":"和平路3巷14-1號",
        "Longitude":120.3708,
        "Latitude":22.3338,
        "ShelterName":"大福社區活動中心",
        "ShelterVillages":"大福村",
        "ShelterCapacity":100,
        "ApplicableDisasterTypes":"水災,震災,土石流,海嘯",
        "ManagerName":"洪蔡麗霞",
        "ManagerPhone":"8613920",
        "Indoor":true,
        "Outdoor":false,
        "SuitableForVulnerable":true
    },
    {
        "ID":124,
        "District":"屏東縣琉球鄉",
        "Village":"大福村",
        "Address":"中正路158號",
        "Longitude":120.3685,
        "Latitude":22.336,
        "ShelterName":"琉球國中",
        "ShelterVillages":"本福村、大福村",
        "ShelterCapacity":200,
        "ApplicableDisasterTypes":"水災,震災,土石流,海嘯",
        "ManagerName":"蔡妙美",
        "ManagerPhone":"8612509",
        "Indoor":true,
        "Outdoor":false,
        "SuitableForVulnerable":true
    },
    {
        "ID":125,
        "District":"屏東縣琉球鄉",
        "Village":"大福村",
        "Address":"中正路293號",
        "Longitude":120.3683,
        "Latitude":22.3371,
        "ShelterName":"琉球國小",
        "ShelterVillages":"大福村、南福村",
        "ShelterCapacity":200,
        "ApplicableDisasterTypes":"水災,震災,土石流,海嘯",
        "ManagerName":"張簡振豐",
        "ManagerPhone":"8612597",
        "Indoor":true,
        "Outdoor":false,
        "SuitableForVulnerable":true
    },
    {
        "ID":126,
        "District":"臺東縣大武鄉",
        "Village":"尚武村",
        "Address":"政通3街1號",
        "Longitude":120.8818,
        "Latitude":22.342,
        "ShelterName":"尚武村社區活動中心",
        "ShelterVillages":"大鳥社區7~9鄰",
        "ShelterCapacity":100,
        "ApplicableDisasterTypes":"水災,震災,土石流,海嘯",
        "ManagerName":"葉雅綸",
        "ManagerPhone":"089-791917",
        "Indoor":true,
        "Outdoor":false,
        "SuitableForVulnerable":true
    },
    {
        "ID":127,
        "District":"臺東縣大武鄉",
        "Village":"尚武村",
        "Address":"政通5街6-1號",
        "Longitude":120.8806,
        "Latitude":22.3425,
        "ShelterName":"大武鄉立托兒所",
        "ShelterVillages":"加羅板部落、古庄部落",
        "ShelterCapacity":100,
        "ApplicableDisasterTypes":"水災,震災,土石流,海嘯",
        "ManagerName":"張輝煌",
        "ManagerPhone":"089-791721",
        "Indoor":true,
        "Outdoor":false,
        "SuitableForVulnerable":false
    },
    {
        "ID":128,
        "District":"屏東縣琉球鄉",
        "Village":"杉福村",
        "Address":"復興路97號",
        "Longitude":120.3692,
        "Latitude":22.3462,
        "ShelterName":"全德國小",
        "ShelterVillages":"商福村、杉福村",
        "ShelterCapacity":200,
        "ApplicableDisasterTypes":"水災,震災,土石流,海嘯",
        "ManagerName":"黃建榮",
        "ManagerPhone":"8612534",
        "Indoor":true,
        "Outdoor":false,
        "SuitableForVulnerable":true
    },
    {
        "ID":129,
        "District":"屏東縣琉球鄉",
        "Village":"中福村",
        "Address":"行政路12號",
        "Longitude":120.3837,
        "Latitude":22.3501,
        "ShelterName":"琉球鄉公所",
        "ShelterVillages":"本福村、中福村、漁福村",
        "ShelterCapacity":150,
        "ApplicableDisasterTypes":"水災,震災,土石流,海嘯",
        "ManagerName":"陳隆進",
        "ManagerPhone":"08-8612501",
        "Indoor":true,
        "Outdoor":false,
        "SuitableForVulnerable":true
    },
    {
        "ID":130,
        "District":"屏東縣枋寮鄉",
        "Village":"保生村",
        "Address":"海邊路6號",
        "Longitude":120.5997,
        "Latitude":22.3562,
        "ShelterName":"老人文康活動中心",
        "ShelterVillages":"隆山村、安樂村、中寮村、保生村",
        "ShelterCapacity":150,
        "ApplicableDisasterTypes":"水災",
        "ManagerName":"潘志信",
        "ManagerPhone":"08-8782012",
        "Indoor":true,
        "Outdoor":false,
        "SuitableForVulnerable":true
    },
    {
        "ID":131,
        "District":"臺東縣大武鄉",
        "Village":"大武村",
        "Address":"大武街110號",
        "Longitude":120.9038,
        "Latitude":22.3564,
        "ShelterName":"大武老人會館",
        "ShelterVillages":"大鳥社區11~14鄰",
        "ShelterCapacity":150,
        "ApplicableDisasterTypes":"水災,震災,土石流,海嘯",
        "ManagerName":"董炎輝",
        "ManagerPhone":"089-791450",
        "Indoor":true,
        "Outdoor":false,
        "SuitableForVulnerable":true
    },
    {
        "ID":132,
        "District":"臺東縣大武鄉",
        "Village":"大武村",
        "Address":"大武街21巷1號",
        "Longitude":120.9064,
        "Latitude":22.3581,
        "ShelterName":"大武鄉多功能綜合活動中心暨避難收容所",
        "ShelterVillages":"大武鄉",
        "ShelterCapacity":300,
        "ApplicableDisasterTypes":"水災,震災,土石流,海嘯",
        "ManagerName":"高佳珍",
        "ManagerPhone":"089-792275",
        "Indoor":true,
        "Outdoor":false,
        "SuitableForVulnerable":true
    },
    {
        "ID":133,
        "District":"屏東縣春日鄉",
        "Village":"古華村",
        "Address":"古華路6鄰2巷46號",
        "Longitude":120.6281,
        "Latitude":22.3596,
        "ShelterName":"古華社區活動中心",
        "ShelterVillages":"古華村",
        "ShelterCapacity":100,
        "ApplicableDisasterTypes":"水災,土石流,海嘯",
        "ManagerName":"理事長陸清木",
        "ManagerPhone":"08-8783276",
        "Indoor":true,
        "Outdoor":false,
        "SuitableForVulnerable":true
    },
    {
        "ID":134,
        "District":"臺東縣大武鄉",
        "Village":"大武村",
        "Address":"大武街56號",
        "Longitude":120.8975,
        "Latitude":22.3596,
        "ShelterName":"大武村社區活動中心",
        "ShelterVillages":"大鳥社區10鄰",
        "ShelterCapacity":100,
        "ApplicableDisasterTypes":"水災,土石流,海嘯",
        "ManagerName":"陳立忠",
        "ManagerPhone":"089-791826",
        "Indoor":true,
        "Outdoor":false,
        "SuitableForVulnerable":true
    },
    {
        "ID":135,
        "District":"屏東縣春日鄉",
        "Village":"古華村",
        "Address":"3巷63號",
        "Longitude":120.626,
        "Latitude":22.361,
        "ShelterName":"古華國民小學",
        "ShelterVillages":"古華村、士文村",
        "ShelterCapacity":200,
        "ApplicableDisasterTypes":"水災,震災,土石流,海嘯",
        "ManagerName":"校長 林季福",
        "ManagerPhone":"08-8781040",
        "Indoor":true,
        "Outdoor":false,
        "SuitableForVulnerable":true
    },
    {
        "ID":136,
        "District":"屏東縣枋寮鄉",
        "Village":"隆山村",
        "Address":"僑德路186號",
        "Longitude":120.6,
        "Latitude":22.3631,
        "ShelterName":"僑德國小",
        "ShelterVillages":"隆山村、安樂村、中寮村、保生村",
        "ShelterCapacity":320,
        "ApplicableDisasterTypes":"水災",
        "ManagerName":"陳郁程",
        "ManagerPhone":"08-8782096",
        "Indoor":true,
        "Outdoor":false,
        "SuitableForVulnerable":false
    },
    {
        "ID":137,
        "District":"屏東縣枋寮鄉",
        "Village":"枋寮村",
        "Address":"德興路197號",
        "Longitude":120.5908,
        "Latitude":22.3678,
        "ShelterName":"枋寮國小",
        "ShelterVillages":"枋寮村 新龍村",
        "ShelterCapacity":189,
        "ApplicableDisasterTypes":"水災,震災",
        "ManagerName":"鄭慧華",
        "ManagerPhone":"08-8782034",
        "Indoor":true,
        "Outdoor":false,
        "SuitableForVulnerable":false
    },
    {
        "ID":138,
        "District":"屏東縣春日鄉",
        "Village":"士文村",
        "Address":"64-2號",
        "Longitude":120.6639,
        "Latitude":22.3685,
        "ShelterName":"士文聚會所",
        "ShelterVillages":"士文村",
        "ShelterCapacity":50,
        "ApplicableDisasterTypes":"水災,震災,土石流,海嘯",
        "ManagerName":"村 長 程中廣",
        "ManagerPhone":"8790009",
        "Indoor":true,
        "Outdoor":true,
        "SuitableForVulnerable":true
    },
    {
        "ID":139,
        "District":"屏東縣春日鄉",
        "Village":"士文村",
        "Address":"65號",
        "Longitude":120.6635,
        "Latitude":22.3689,
        "ShelterName":"古華國民小學-士文分校",
        "ShelterVillages":"士文村",
        "ShelterCapacity":60,
        "ApplicableDisasterTypes":"水災,震災,土石流,海嘯",
        "ManagerName":"主任 戴照吉",
        "ManagerPhone":"08-8790029",
        "Indoor":true,
        "Outdoor":false,
        "SuitableForVulnerable":true
    },
    {
        "ID":140,
        "District":"屏東縣春日鄉",
        "Village":"春日村",
        "Address":"春日路13號",
        "Longitude":120.6243,
        "Latitude":22.3703,
        "ShelterName":"春日社區活動中心",
        "ShelterVillages":"春日村",
        "ShelterCapacity":50,
        "ApplicableDisasterTypes":"水災,震災,土石流,海嘯",
        "ManagerName":"理事長 余國基",
        "ManagerPhone":"08-8785913",
        "Indoor":true,
        "Outdoor":false,
        "SuitableForVulnerable":true
    },
    {
        "ID":141,
        "District":"屏東縣春日鄉",
        "Village":"春日村",
        "Address":"春日路314號",
        "Longitude":120.627,
        "Latitude":22.3703,
        "ShelterName":"春日國民小學",
        "ShelterVillages":"春日村、古華村、士文村",
        "ShelterCapacity":200,
        "ApplicableDisasterTypes":"水災,震災,土石流,海嘯",
        "ManagerName":"校長戴文柱",
        "ManagerPhone":"08-8782433",
        "Indoor":true,
        "Outdoor":false,
        "SuitableForVulnerable":true
    },
    {
        "ID":142,
        "District":"屏東縣枋寮鄉",
        "Village":"新龍村",
        "Address":"義民路3號",
        "Longitude":120.5908,
        "Latitude":22.3711,
        "ShelterName":"枋寮高中",
        "ShelterVillages":"枋寮村、新龍村",
        "ShelterCapacity":1136,
        "ApplicableDisasterTypes":"水災,震災",
        "ManagerName":"陳瑞華",
        "ManagerPhone":"08-8782095",
        "Indoor":true,
        "Outdoor":false,
        "SuitableForVulnerable":false
    },
    {
        "ID":143,
        "District":"臺東縣達仁鄉",
        "Village":"新化村",
        "Address":"57號",
        "Longitude":120.856773,
        "Latitude":22.381551,
        "ShelterName":"臺東縣立安朔國小新化分校",
        "ShelterVillages":"新化村",
        "ShelterCapacity":200,
        "ApplicableDisasterTypes":null,
        "ManagerName":"吳昭明",
        "ManagerPhone":"089-792495",
        "Indoor":false,
        "Outdoor":false,
        "SuitableForVulnerable":false
    },
    {
        "ID":144,
        "District":"屏東縣枋寮鄉",
        "Village":"人和村",
        "Address":"建興路39號",
        "Longitude":120.6019,
        "Latitude":22.387,
        "ShelterName":"建興國小",
        "ShelterVillages":"天時村、地利村、人和村、新開村、內寮村",
        "ShelterCapacity":162,
        "ApplicableDisasterTypes":"水災,震災,海嘯",
        "ManagerName":"蔡有福",
        "ManagerPhone":"08-87813562",
        "Indoor":true,
        "Outdoor":false,
        "SuitableForVulnerable":false
    },
    {
        "ID":145,
        "District":"屏東縣屏東市",
        "Village":"永安里",
        "Address":"建興南路35號",
        "Longitude":120.2857,
        "Latitude":22.3931,
        "ShelterName":"屏東市復興公園",
        "ShelterVillages":"永安里",
        "ShelterCapacity":1067,
        "ApplicableDisasterTypes":null,
        "ManagerName":"黃祥生",
        "ManagerPhone":"7560101#502",
        "Indoor":false,
        "Outdoor":true,
        "SuitableForVulnerable":false
    },
    {
        "ID":146,
        "District":"屏東縣屏東市",
        "Village":"崇武里",
        "Address":"建國路25號",
        "Longitude":120.2912,
        "Latitude":22.3948,
        "ShelterName":"國立屏東高級工業職業學校",
        "ShelterVillages":"永安里2",
        "ShelterCapacity":2523,
        "ApplicableDisasterTypes":"水災,震災",
        "ManagerName":"張明誌",
        "ManagerPhone":"08-7523781#200",
        "Indoor":true,
        "Outdoor":true,
        "SuitableForVulnerable":false
    },
    {
        "ID":147,
        "District":"屏東縣枋寮鄉",
        "Village":"東海村",
        "Address":"東海路486號",
        "Longitude":120.5773,
        "Latitude":22.4013,
        "ShelterName":"東海國小",
        "ShelterVillages":"東海村、大庄村",
        "ShelterCapacity":524,
        "ApplicableDisasterTypes":"水災,震災,海嘯",
        "ManagerName":"許?延",
        "ManagerPhone":"08-8712209",
        "Indoor":true,
        "Outdoor":false,
        "SuitableForVulnerable":false
    },
    {
        "ID":148,
        "District":"屏東縣屏東市",
        "Village":"豐榮里",
        "Address":"自由、大連、廣東、勝利東路廓內",
        "Longitude":120.2952,
        "Latitude":22.4044,
        "ShelterName":"屏東市千禧公園",
        "ShelterVillages":"豐榮里",
        "ShelterCapacity":1734,
        "ApplicableDisasterTypes":"水災,震災",
        "ManagerName":"蔡育霖",
        "ManagerPhone":"7560101#503",
        "Indoor":false,
        "Outdoor":true,
        "SuitableForVulnerable":false
    },
    {
        "ID":149,
        "District":"屏東縣枋寮鄉",
        "Village":"太源村",
        "Address":"太源路2-10號",
        "Longitude":120.593,
        "Latitude":22.4082,
        "ShelterName":"東海國小太源分校",
        "ShelterVillages":"太源村、玉泉村",
        "ShelterCapacity":90,
        "ApplicableDisasterTypes":"水災,震災,海嘯",
        "ManagerName":"陳惠靜",
        "ManagerPhone":"08-8711785",
        "Indoor":true,
        "Outdoor":false,
        "SuitableForVulnerable":false
    },
    {
        "ID":150,
        "District":"屏東縣佳冬鄉",
        "Village":"賴家村",
        "Address":"佳農街17號",
        "Longitude":120.5584,
        "Latitude":22.409,
        "ShelterName":"國立佳冬高農",
        "ShelterVillages":"燄塭羌園",
        "ShelterCapacity":239,
        "ApplicableDisasterTypes":"水災",
        "ManagerName":"顏宏哲",
        "ManagerPhone":"08-8662726-506",
        "Indoor":true,
        "Outdoor":false,
        "SuitableForVulnerable":true
    },
    {
        "ID":151,
        "District":"屏東縣屏東市",
        "Village":"廣興里",
        "Address":"監理站對面",
        "Longitude":120.2915,
        "Latitude":22.413,
        "ShelterName":"屏東市廣興公園",
        "ShelterVillages":"廣興里",
        "ShelterCapacity":755,
        "ApplicableDisasterTypes":"水災,震災",
        "ManagerName":"蔡育霖",
        "ManagerPhone":"7560101#503",
        "Indoor":false,
        "Outdoor":true,
        "SuitableForVulnerable":false
    },
    {
        "ID":152,
        "District":"臺東縣大武鄉",
        "Village":"大竹村",
        "Address":"加津林50號",
        "Longitude":120.9223,
        "Latitude":22.4162,
        "ShelterName":"加津林活動中心",
        "ShelterVillages":"大竹本部落、富山、加津林",
        "ShelterCapacity":200,
        "ApplicableDisasterTypes":"水災,土石流,海嘯",
        "ManagerName":"鄭振雄",
        "ManagerPhone":"089-761098",
        "Indoor":true,
        "Outdoor":false,
        "SuitableForVulnerable":false
    },
    {
        "ID":153,
        "District":"屏東縣佳冬鄉",
        "Village":"玉光村",
        "Address":"文化一路240號",
        "Longitude":120.5669,
        "Latitude":22.423,
        "ShelterName":"佳冬鄉立幼兒園",
        "ShelterVillages":"羌園、燄溫、塭豐",
        "ShelterCapacity":200,
        "ApplicableDisasterTypes":"水災,震災,海嘯",
        "ManagerName":"吳佳君",
        "ManagerPhone":"08-8660612",
        "Indoor":true,
        "Outdoor":true,
        "SuitableForVulnerable":true
    },
    {
        "ID":154,
        "District":"屏東縣春日鄉",
        "Village":"七佳村",
        "Address":"自強1路92號",
        "Longitude":120.629,
        "Latitude":22.4277,
        "ShelterName":"力里國民小學",
        "ShelterVillages":"力里村、歸崇村、七佳村",
        "ShelterCapacity":200,
        "ApplicableDisasterTypes":"水災,震災,土石流,海嘯",
        "ManagerName":"校長 陳玉賢",
        "ManagerPhone":"08-8791020",
        "Indoor":true,
        "Outdoor":false,
        "SuitableForVulnerable":true
    },
    {
        "ID":155,
        "District":"屏東縣春日鄉",
        "Village":"七佳村",
        "Address":"9鄰自強1路18號",
        "Longitude":120.6279,
        "Latitude":22.428,
        "ShelterName":"春日鄉立老人文康中心",
        "ShelterVillages":"力里村、歸崇村、七佳村",
        "ShelterCapacity":120,
        "ApplicableDisasterTypes":"水災,震災,土石流,海嘯",
        "ManagerName":"村長 鄞美瑛",
        "ManagerPhone":"08-878214558",
        "Indoor":true,
        "Outdoor":false,
        "SuitableForVulnerable":true
    },
    {
        "ID":156,
        "District":"屏東縣佳冬鄉",
        "Village":"玉光村",
        "Address":"大同路1號",
        "Longitude":120.5668,
        "Latitude":22.4285,
        "ShelterName":"佳冬國中",
        "ShelterVillages":"燄塭羌園",
        "ShelterCapacity":300,
        "ApplicableDisasterTypes":"水災,海嘯",
        "ManagerName":"林世翔",
        "ManagerPhone":"08-8662041",
        "Indoor":true,
        "Outdoor":false,
        "SuitableForVulnerable":true
    },
    {
        "ID":157,
        "District":"屏東縣林邊鄉",
        "Village":"崎?村",
        "Address":"成功路600號",
        "Longitude":120.4902,
        "Latitude":22.4298,
        "ShelterName":"屏東縣林邊鄉崎峰活動中心",
        "ShelterVillages":"田厝村、水利村、崎峰村",
        "ShelterCapacity":200,
        "ApplicableDisasterTypes":"水災,震災,海嘯",
        "ManagerName":"陳水村",
        "ManagerPhone":"932782242",
        "Indoor":true,
        "Outdoor":false,
        "SuitableForVulnerable":true
    },
    {
        "ID":158,
        "District":"屏東縣來義鄉",
        "Village":"南和村",
        "Address":"19鄰289號",
        "Longitude":120.6379,
        "Latitude":22.435,
        "ShelterName":"來義鄉文物館",
        "ShelterVillages":"南和村",
        "ShelterCapacity":100,
        "ApplicableDisasterTypes":"水災,震災,土石流",
        "ManagerName":"村長連正三",
        "ManagerPhone":"08-8791069",
        "Indoor":true,
        "Outdoor":false,
        "SuitableForVulnerable":true
    },
    {
        "ID":159,
        "District":"屏東縣來義鄉",
        "Village":"南和村",
        "Address":"51號",
        "Longitude":120.6426,
        "Latitude":22.4364,
        "ShelterName":"南和國小",
        "ShelterVillages":"南和村",
        "ShelterCapacity":200,
        "ApplicableDisasterTypes":"水災,震災,土石流",
        "ManagerName":"村長連正三",
        "ManagerPhone":"08-8791069",
        "Indoor":true,
        "Outdoor":false,
        "SuitableForVulnerable":false
    },
    {
        "ID":160,
        "District":"屏東縣林邊鄉",
        "Village":"仁和村",
        "Address":"中山路417號",
        "Longitude":120.5114,
        "Latitude":22.4374,
        "ShelterName":"屏東縣林邊鄉仁和國民小學",
        "ShelterVillages":"林邊村、仁和村、永樂村、光林村、中林村",
        "ShelterCapacity":200,
        "ApplicableDisasterTypes":"水災,震災,海嘯",
        "ManagerName":"廖先生",
        "ManagerPhone":"08-8757745",
        "Indoor":true,
        "Outdoor":true,
        "SuitableForVulnerable":false
    },
    {
        "ID":161,
        "District":"臺東縣達仁鄉",
        "Village":"土?村",
        "Address":"1鄰22號",
        "Longitude":120.886914,
        "Latitude":22.453848,
        "ShelterName":"土?天主堂",
        "ShelterVillages":"土?村",
        "ShelterCapacity":50,
        "ApplicableDisasterTypes":null,
        "ManagerName":"黃春香",
        "ManagerPhone":"089-761129",
        "Indoor":false,
        "Outdoor":false,
        "SuitableForVulnerable":false
    },
    {
        "ID":162,
        "District":"臺東縣達仁鄉",
        "Village":"土?村",
        "Address":"2鄰10 號",
        "Longitude":120.887664,
        "Latitude":22.453853,
        "ShelterName":"臺東縣立土?國小",
        "ShelterVillages":"土?村",
        "ShelterCapacity":200,
        "ApplicableDisasterTypes":null,
        "ManagerName":"蕭德光",
        "ManagerPhone":"089-761225",
        "Indoor":false,
        "Outdoor":false,
        "SuitableForVulnerable":false
    },
    {
        "ID":163,
        "District":"臺東縣達仁鄉",
        "Village":"土?村",
        "Address":"1鄰106號",
        "Longitude":120.885982,
        "Latitude":22.454897,
        "ShelterName":"達仁鄉立土?托兒所",
        "ShelterVillages":"土?村",
        "ShelterCapacity":160,
        "ApplicableDisasterTypes":null,
        "ManagerName":"蕭惠美",
        "ManagerPhone":"089-761893",
        "Indoor":false,
        "Outdoor":false,
        "SuitableForVulnerable":false
    },
    {
        "ID":164,
        "District":"屏東縣東港鎮",
        "Village":"大潭里",
        "Address":"大潭路93號",
        "Longitude":120.495771,
        "Latitude":22.456799,
        "ShelterName":"大潭國小",
        "ShelterVillages":"大潭里,下?里,大鵬里",
        "ShelterCapacity":150,
        "ApplicableDisasterTypes":"水災,震災",
        "ManagerName":"王舜民",
        "ManagerPhone":"08-8324226",
        "Indoor":true,
        "Outdoor":true,
        "SuitableForVulnerable":true
    },
    {
        "ID":165,
        "District":"臺東縣大武鄉",
        "Village":"大竹村",
        "Address":"愛國蒲6鄰92號",
        "Longitude":120.9227,
        "Latitude":22.4575,
        "ShelterName":"愛國蒲分校",
        "ShelterVillages":"愛國蒲部落",
        "ShelterCapacity":100,
        "ApplicableDisasterTypes":"水災,震災,土石流,海嘯",
        "ManagerName":"張盛華",
        "ManagerPhone":"089-761007",
        "Indoor":true,
        "Outdoor":false,
        "SuitableForVulnerable":true
    },
    {
        "ID":166,
        "District":"屏東縣東港鎮",
        "Village":"船頭里",
        "Address":"船頭路25號",
        "Longitude":120.4629,
        "Latitude":22.4624,
        "ShelterName":"以栗國小",
        "ShelterVillages":"船頭里 南平里 嘉蓮里",
        "ShelterCapacity":300,
        "ApplicableDisasterTypes":"水災,震災",
        "ManagerName":"吳俊岩",
        "ManagerPhone":"08-8322816",
        "Indoor":true,
        "Outdoor":true,
        "SuitableForVulnerable":true
    },
    {
        "ID":167,
        "District":"屏東縣東港鎮",
        "Village":"東隆里",
        "Address":"東隆街21-1號",
        "Longitude":120.4488,
        "Latitude":22.4631,
        "ShelterName":"東隆宮香客大樓",
        "ShelterVillages":"本鎮各里第一收容所",
        "ShelterCapacity":300,
        "ApplicableDisasterTypes":"水災",
        "ManagerName":"陳小姐",
        "ManagerPhone":"08-8353620",
        "Indoor":true,
        "Outdoor":false,
        "SuitableForVulnerable":true
    },
    {
        "ID":168,
        "District":"臺東縣太麻里鄉",
        "Village":"多良村",
        "Address":"18鄰大溪251號",
        "Longitude":120.9414,
        "Latitude":22.4631,
        "ShelterName":"太麻里鄉多良村辦公處",
        "ShelterVillages":"多良村",
        "ShelterCapacity":80,
        "ApplicableDisasterTypes":"水災,土石流,海嘯",
        "ManagerName":"劉任瑜",
        "ManagerPhone":"089-761077",
        "Indoor":true,
        "Outdoor":false,
        "SuitableForVulnerable":false
    },
    {
        "ID":169,
        "District":"屏東縣東港鎮",
        "Village":"共和里",
        "Address":"共和街45號",
        "Longitude":120.449937,
        "Latitude":22.463386,
        "ShelterName":"東隆國小",
        "ShelterVillages":"共和里、東隆里、興台里、八德里、中興里、朝安里",
        "ShelterCapacity":500,
        "ApplicableDisasterTypes":"水災,震災",
        "ManagerName":"林玫玲",
        "ManagerPhone":"08-8322064",
        "Indoor":true,
        "Outdoor":true,
        "SuitableForVulnerable":true
    },
    {
        "ID":170,
        "District":"屏東縣來義鄉",
        "Village":"望嘉村",
        "Address":"114-1號",
        "Longitude":120.6218,
        "Latitude":22.4636,
        "ShelterName":"望嘉警察派出所",
        "ShelterVillages":"望嘉村",
        "ShelterCapacity":100,
        "ApplicableDisasterTypes":"水災,震災,土石流",
        "ManagerName":"村長周榮進",
        "ManagerPhone":"08-7981551",
        "Indoor":true,
        "Outdoor":false,
        "SuitableForVulnerable":true
    },
    {
        "ID":171,
        "District":"屏東縣林邊鄉",
        "Village":"竹林村",
        "Address":"中興122號",
        "Longitude":120.5331,
        "Latitude":22.4642,
        "ShelterName":"屏東縣林邊鄉竹林國民小學",
        "ShelterVillages":"竹林村",
        "ShelterCapacity":100,
        "ApplicableDisasterTypes":"水災,震災,海嘯",
        "ManagerName":"鐘主任",
        "ManagerPhone":"921696540",
        "Indoor":true,
        "Outdoor":true,
        "SuitableForVulnerable":true
    },
    {
        "ID":172,
        "District":"屏東縣東港鎮",
        "Village":"船頭里",
        "Address":"船頭路1號",
        "Longitude":120.4555,
        "Latitude":22.4652,
        "ShelterName":"東港高中",
        "ShelterVillages":"本鎮各里第二收容所",
        "ShelterCapacity":450,
        "ApplicableDisasterTypes":"水災,震災,海嘯",
        "ManagerName":"陳建銘",
        "ManagerPhone":"08-8322014",
        "Indoor":true,
        "Outdoor":true,
        "SuitableForVulnerable":true
    },
    {
        "ID":173,
        "District":"屏東縣東港鎮",
        "Village":"興東里",
        "Address":"長春二路15號",
        "Longitude":120.4596,
        "Latitude":22.4694,
        "ShelterName":"東光國小",
        "ShelterVillages":"興東里 船頭里",
        "ShelterCapacity":150,
        "ApplicableDisasterTypes":"水災,震災,海嘯",
        "ManagerName":"林恆斌",
        "ManagerPhone":"08-8324927",
        "Indoor":true,
        "Outdoor":true,
        "SuitableForVulnerable":true
    },
    {
        "ID":174,
        "District":"屏東縣東港鎮",
        "Village":"興東里",
        "Address":"中正路一段10號",
        "Longitude":120.4547,
        "Latitude":22.4707,
        "ShelterName":"東港國小",
        "ShelterVillages":"本鎮各里第三收容所",
        "ShelterCapacity":300,
        "ApplicableDisasterTypes":"水災,震災,海嘯",
        "ManagerName":"黃玉文",
        "ManagerPhone":"08-8322019",
        "Indoor":true,
        "Outdoor":true,
        "SuitableForVulnerable":true
    },
    {
        "ID":175,
        "District":"屏東縣新埤鄉",
        "Village":"箕湖村",
        "Address":"民眾路103號",
        "Longitude":120.611,
        "Latitude":22.4754,
        "ShelterName":"新埤鄉立幼兒園",
        "ShelterVillages":"箕湖村、餉潭村、萬隆村",
        "ShelterCapacity":250,
        "ApplicableDisasterTypes":"水災,震災,土石流,海嘯",
        "ManagerName":"潘曉珍",
        "ManagerPhone":"08-7981398",
        "Indoor":true,
        "Outdoor":false,
        "SuitableForVulnerable":true
    },
    {
        "ID":176,
        "District":"臺東縣達仁鄉",
        "Village":"台?村",
        "Address":"10鄰59-1號",
        "Longitude":120.9077,
        "Latitude":22.47755,
        "ShelterName":"臺東縣台?國民小學",
        "ShelterVillages":"台?村",
        "ShelterCapacity":200,
        "ApplicableDisasterTypes":null,
        "ManagerName":"羅道勳",
        "ManagerPhone":"089-761252",
        "Indoor":false,
        "Outdoor":false,
        "SuitableForVulnerable":false
    },
    {
        "ID":177,
        "District":"臺東縣達仁鄉",
        "Village":"台?村",
        "Address":"10鄰56號",
        "Longitude":120.9081,
        "Latitude":22.47805,
        "ShelterName":"台?活動中心",
        "ShelterVillages":"台?村",
        "ShelterCapacity":100,
        "ApplicableDisasterTypes":null,
        "ManagerName":"范國祥",
        "ManagerPhone":"089-761320",
        "Indoor":false,
        "Outdoor":false,
        "SuitableForVulnerable":false
    },
    {
        "ID":178,
        "District":"屏東縣東港鎮",
        "Village":"興東里",
        "Address":"興東路43-1號",
        "Longitude":120.4657,
        "Latitude":22.4784,
        "ShelterName":"東興國小",
        "ShelterVillages":"興東里 興農里、興和里",
        "ShelterCapacity":461,
        "ApplicableDisasterTypes":"水災,震災,海嘯",
        "ManagerName":"黃素卿",
        "ManagerPhone":"08-8310406",
        "Indoor":true,
        "Outdoor":true,
        "SuitableForVulnerable":true
    },
    {
        "ID":179,
        "District":"臺北市中正區",
        "Village":"黎明里",
        "Address":"公園路29號",
        "Longitude":120.913,
        "Latitude":22.4797,
        "ShelterName":"北市大附小",
        "ShelterVillages":"光復里、黎明里、建國里",
        "ShelterCapacity":157,
        "ApplicableDisasterTypes":"震災",
        "ManagerName":"邱靜萍",
        "ManagerPhone":"02-23110395#660",
        "Indoor":true,
        "Outdoor":false,
        "SuitableForVulnerable":false
    },
    {
        "ID":180,
        "District":"臺東縣達仁鄉",
        "Village":"台?村",
        "Address":"8鄰24號",
        "Longitude":120.913513,
        "Latitude":22.479837,
        "ShelterName":"台?基督教會",
        "ShelterVillages":"台?村",
        "ShelterCapacity":50,
        "ApplicableDisasterTypes":null,
        "ManagerName":"林輝發",
        "ManagerPhone":"089-761487",
        "Indoor":false,
        "Outdoor":false,
        "SuitableForVulnerable":false
    },
    {
        "ID":181,
        "District":"臺東縣達仁鄉",
        "Village":"台?村",
        "Address":"9鄰啦里吧49號",
        "Longitude":120.9136,
        "Latitude":22.48099,
        "ShelterName":"啦里吧活動中心",
        "ShelterVillages":"台?村啦里吧部落",
        "ShelterCapacity":100,
        "ApplicableDisasterTypes":null,
        "ManagerName":"溫光林",
        "ManagerPhone":"089-761320",
        "Indoor":false,
        "Outdoor":false,
        "SuitableForVulnerable":false
    },
    {
        "ID":182,
        "District":"屏東縣新埤鄉",
        "Village":"新埤村",
        "Address":"新華路165號",
        "Longitude":120.5653,
        "Latitude":22.4844,
        "ShelterName":"新埤國小",
        "ShelterVillages":"打鐵村、南豐村、建功村、新埤村",
        "ShelterCapacity":450,
        "ApplicableDisasterTypes":"水災,震災,土石流,海嘯",
        "ManagerName":"陳震蔚",
        "ManagerPhone":"08-7971027",
        "Indoor":true,
        "Outdoor":false,
        "SuitableForVulnerable":true
    },
    {
        "ID":183,
        "District":"高雄市林園區",
        "Village":"中芸里",
        "Address":"中芸路3-100號",
        "Longitude":120.395311,
        "Latitude":22.485875,
        "ShelterName":"高雄市立中芸國民中學",
        "ShelterVillages":"全區",
        "ShelterCapacity":700,
        "ApplicableDisasterTypes":"水災,震災",
        "ManagerName":"吳育霖",
        "ManagerPhone":"07-6425223#40",
        "Indoor":false,
        "Outdoor":false,
        "SuitableForVulnerable":false
    },
    {
        "ID":184,
        "District":"高雄市林園區",
        "Village":"中芸里",
        "Address":"中芸路1號",
        "Longitude":120.3967,
        "Latitude":22.4871,
        "ShelterName":"中芸國小",
        "ShelterVillages":"全區",
        "ShelterCapacity":500,
        "ApplicableDisasterTypes":"震災",
        "ManagerName":"蔡駿輝",
        "ManagerPhone":"07-6412342#50",
        "Indoor":true,
        "Outdoor":false,
        "SuitableForVulnerable":true
    },
    {
        "ID":185,
        "District":"屏東縣新園鄉",
        "Village":"南龍村",
        "Address":"南興路217號",
        "Longitude":120.4581,
        "Latitude":22.4877,
        "ShelterName":"烏龍國小",
        "ShelterVillages":"烏龍四村",
        "ShelterCapacity":100,
        "ApplicableDisasterTypes":"水災,震災",
        "ManagerName":"蔡立華",
        "ManagerPhone":"08-8333707#14",
        "Indoor":true,
        "Outdoor":false,
        "SuitableForVulnerable":true
    },
    {
        "ID":186,
        "District":"屏東縣新園鄉",
        "Village":"鹽埔村",
        "Address":"鹽洲路379號",
        "Longitude":120.4408,
        "Latitude":22.4883,
        "ShelterName":"鹽洲國小",
        "ShelterVillages":"鹽洲共和",
        "ShelterCapacity":50,
        "ApplicableDisasterTypes":"水災,震災",
        "ManagerName":"張芳瑞",
        "ManagerPhone":"08-8322975#14",
        "Indoor":true,
        "Outdoor":false,
        "SuitableForVulnerable":true
    },
    {
        "ID":187,
        "District":"屏東縣南州鄉",
        "Village":"溪北村",
        "Address":"仁里路93號",
        "Longitude":120.5111,
        "Latitude":22.4945,
        "ShelterName":"溪北社區活動中心",
        "ShelterVillages":"南安村、同安村",
        "ShelterCapacity":50,
        "ApplicableDisasterTypes":"水災,震災",
        "ManagerName":"蔡永昌",
        "ManagerPhone":"08-8641070",
        "Indoor":true,
        "Outdoor":true,
        "SuitableForVulnerable":true
    },
    {
        "ID":188,
        "District":"屏東縣南州鄉",
        "Village":"溪北村",
        "Address":"仁里路102號",
        "Longitude":120.5111,
        "Latitude":22.4957,
        "ShelterName":"溪北國小",
        "ShelterVillages":"七塊村、萬華村",
        "ShelterCapacity":95,
        "ApplicableDisasterTypes":"水災,震災",
        "ManagerName":"陳慶文",
        "ManagerPhone":"08-8642081",
        "Indoor":true,
        "Outdoor":false,
        "SuitableForVulnerable":true
    },
    {
        "ID":189,
        "District":"屏東縣來義鄉",
        "Village":"文樂村",
        "Address":"新樂路1號",
        "Longitude":120.6243,
        "Latitude":22.4999,
        "ShelterName":"文樂活動中心",
        "ShelterVillages":"文樂村",
        "ShelterCapacity":50,
        "ApplicableDisasterTypes":"水災,震災,土石流",
        "ManagerName":"村長陸旨成",
        "ManagerPhone":"08-7982350",
        "Indoor":true,
        "Outdoor":false,
        "SuitableForVulnerable":true
    },
    {
        "ID":190,
        "District":"高雄市林園區",
        "Village":"頂厝里",
        "Address":"校前路1號",
        "Longitude":120.378585,
        "Latitude":22.504297,
        "ShelterName":"高雄市林園區港埔國民小學",
        "ShelterVillages":"全區",
        "ShelterCapacity":690,
        "ApplicableDisasterTypes":"水災,震災",
        "ManagerName":"張二文",
        "ManagerPhone":"07-2245398",
        "Indoor":true,
        "Outdoor":false,
        "SuitableForVulnerable":true
    },
    {
        "ID":191,
        "District":"高雄市林園區",
        "Village":"廣應里",
        "Address":"王公二路100號",
        "Longitude":120.388254,
        "Latitude":22.504698,
        "ShelterName":"高雄市林園區王公國民小學",
        "ShelterVillages":"全區",
        "ShelterCapacity":1100,
        "ApplicableDisasterTypes":"水災,震災,土石流,海嘯",
        "ManagerName":"蔡玉董",
        "ManagerPhone":"07-6420503#40",
        "Indoor":false,
        "Outdoor":false,
        "SuitableForVulnerable":true
    },
    {
        "ID":192,
        "District":"高雄市林園區",
        "Village":"林園里",
        "Address":"忠孝西路20號",
        "Longitude":120.394303,
        "Latitude":22.506778,
        "ShelterName":"高雄市林園區林園國民小學",
        "ShelterVillages":"全區",
        "ShelterCapacity":2000,
        "ApplicableDisasterTypes":"水災,震災,土石流,海嘯",
        "ManagerName":"董原利",
        "ManagerPhone":"6412290",
        "Indoor":true,
        "Outdoor":false,
        "SuitableForVulnerable":true
    },
    {
        "ID":193,
        "District":"高雄市林園區",
        "Village":"林園里",
        "Address":"林園北路191號",
        "Longitude":120.3945,
        "Latitude":22.5087,
        "ShelterName":"林園區長青文康活動中心",
        "ShelterVillages":"全區",
        "ShelterCapacity":260,
        "ApplicableDisasterTypes":"水災,震災,土石流,海嘯",
        "ManagerName":"張簡朝元",
        "ManagerPhone":"6412511#303",
        "Indoor":true,
        "Outdoor":false,
        "SuitableForVulnerable":true
    },
    {
        "ID":194,
        "District":"屏東縣新園鄉",
        "Village":"港西村",
        "Address":"中和路101號",
        "Longitude":120.4556,
        "Latitude":22.5087,
        "ShelterName":"港西國小",
        "ShelterVillages":"港西五房",
        "ShelterCapacity":30,
        "ApplicableDisasterTypes":"水災,震災",
        "ManagerName":"許湘渝",
        "ManagerPhone":"08-8681644#14",
        "Indoor":true,
        "Outdoor":false,
        "SuitableForVulnerable":true
    },
    {
        "ID":195,
        "District":"屏東縣來義鄉",
        "Village":"義林村",
        "Address":"來新路21號",
        "Longitude":120.5825,
        "Latitude":22.5087,
        "ShelterName":"來義鄉新來義部落多功能活動中心",
        "ShelterVillages":"來義村、義林村、丹林村、古樓村、文樂村、望嘉村、南和村",
        "ShelterCapacity":500,
        "ApplicableDisasterTypes":"水災,震災,土石流",
        "ManagerName":"陳世凱",
        "ManagerPhone":"08-7850251-127",
        "Indoor":true,
        "Outdoor":false,
        "SuitableForVulnerable":false
    },
    {
        "ID":196,
        "District":"屏東縣潮州鎮",
        "Village":"興美里",
        "Address":"興美路24號",
        "Longitude":120.534672,
        "Latitude":22.512958,
        "ShelterName":"潮南國小",
        "ShelterVillages":"興美里、樣子里",
        "ShelterCapacity":1126,
        "ApplicableDisasterTypes":"水災,震災",
        "ManagerName":"黃瓘茗",
        "ManagerPhone":"08-7882312",
        "Indoor":true,
        "Outdoor":false,
        "SuitableForVulnerable":false
    },
    {
        "ID":197,
        "District":"屏東縣崁頂鄉",
        "Village":"園寮村",
        "Address":"田寮路1-15號",
        "Longitude":120.5184,
        "Latitude":22.5134,
        "ShelterName":"南榮國中",
        "ShelterVillages":"園寮村",
        "ShelterCapacity":200,
        "ApplicableDisasterTypes":"水災,震災,土石流,海嘯",
        "ManagerName":"張載陽",
        "ManagerPhone":"88631112",
        "Indoor":true,
        "Outdoor":false,
        "SuitableForVulnerable":false
    },
    {
        "ID":198,
        "District":"屏東縣崁頂鄉",
        "Village":"崁頂村",
        "Address":"中正路119號",
        "Longitude":120.5118,
        "Latitude":22.5141,
        "ShelterName":"崁頂國小",
        "ShelterVillages":"崁頂村、北勢村、越溪村",
        "ShelterCapacity":200,
        "ApplicableDisasterTypes":"水災,震災,土石流,海嘯",
        "ManagerName":"顏乾明",
        "ManagerPhone":"08-8631959",
        "Indoor":true,
        "Outdoor":false,
        "SuitableForVulnerable":true
    },
    {
        "ID":199,
        "District":"高雄市小港區",
        "Village":"龍鳳里",
        "Address":"鳳鳴路191號",
        "Longitude":120.357564,
        "Latitude":22.515082,
        "ShelterName":"高雄市小港區鳳鳴國民小學",
        "ShelterVillages":"鳳鳴、龍鳳",
        "ShelterCapacity":200,
        "ApplicableDisasterTypes":"水災,震災,土石流,海嘯",
        "ManagerName":"陳慶彰",
        "ManagerPhone":"8714561＊130",
        "Indoor":false,
        "Outdoor":false,
        "SuitableForVulnerable":false
    },
    {
        "ID":200,
        "District":"屏東縣崁頂鄉",
        "Village":"崁頂村",
        "Address":"興農路29-12號",
        "Longitude":120.5069,
        "Latitude":22.5152,
        "ShelterName":"崁頂老人文康中心",
        "ShelterVillages":"崁頂鄉、港東村",
        "ShelterCapacity":150,
        "ApplicableDisasterTypes":"水災,震災,土石流,海嘯",
        "ManagerName":"王陳素枝",
        "ManagerPhone":"08-8630164",
        "Indoor":true,
        "Outdoor":false,
        "SuitableForVulnerable":true
    },
    {
        "ID":201,
        "District":"高雄市林園區",
        "Village":"林園里",
        "Address":"林園北路481號",
        "Longitude":120.395661,
        "Latitude":22.516726,
        "ShelterName":"高雄市立林園高級中學",
        "ShelterVillages":"全區",
        "ShelterCapacity":2600,
        "ApplicableDisasterTypes":"水災,震災,土石流,海嘯",
        "ManagerName":"陳怡仁",
        "ManagerPhone":"07-6412059#400",
        "Indoor":true,
        "Outdoor":false,
        "SuitableForVulnerable":true
    },
    {
        "ID":202,
        "District":"屏東縣來義鄉",
        "Village":"丹林村",
        "Address":"丹林路25-1號",
        "Longitude":120.6348,
        "Latitude":22.5174,
        "ShelterName":"丹林活動中心",
        "ShelterVillages":"丹林村",
        "ShelterCapacity":50,
        "ApplicableDisasterTypes":"水災,震災,土石流",
        "ManagerName":"村長沈義松",
        "ManagerPhone":"08-7850255",
        "Indoor":true,
        "Outdoor":false,
        "SuitableForVulnerable":true
    },
    {
        "ID":203,
        "District":"高雄市小港區",
        "Village":"鳳興里",
        "Address":"龍鳳路559號",
        "Longitude":120.348385,
        "Latitude":22.52185,
        "ShelterName":"高雄市小港區鳳林國民中學",
        "ShelterVillages":"鳳興、鳳森",
        "ShelterCapacity":50,
        "ApplicableDisasterTypes":"水災,震災,土石流,海嘯",
        "ManagerName":"田續鴻",
        "ManagerPhone":"8711130＊31",
        "Indoor":false,
        "Outdoor":false,
        "SuitableForVulnerable":false
    },
    {
        "ID":204,
        "District":"屏東縣潮州鎮",
        "Village":"九塊里",
        "Address":"復興路66號",
        "Longitude":120.5609105,
        "Latitude":22.52309297,
        "ShelterName":"潮東國小",
        "ShelterVillages":"九塊裡、崙東里、彭城里",
        "ShelterCapacity":85,
        "ApplicableDisasterTypes":"水災",
        "ManagerName":"潘山榮",
        "ManagerPhone":"08-7871189",
        "Indoor":true,
        "Outdoor":false,
        "SuitableForVulnerable":false
    },
    {
        "ID":205,
        "District":"屏東縣新園鄉",
        "Village":"新園村",
        "Address":"媽祖路49號",
        "Longitude":120.4519,
        "Latitude":22.5241,
        "ShelterName":"新園國小",
        "ShelterVillages":"新園新東",
        "ShelterCapacity":100,
        "ApplicableDisasterTypes":"水災,震災",
        "ManagerName":"許天瑞",
        "ManagerPhone":"08-8681113#14",
        "Indoor":true,
        "Outdoor":false,
        "SuitableForVulnerable":true
    },
    {
        "ID":206,
        "District":"臺東縣金峰鄉",
        "Village":"歷坵村",
        "Address":"1鄰12號No.12,Liqiu,Jinfeng Township,Taitung County 964,TaiwanR.O.C.",
        "Longitude":120.926439,
        "Latitude":22.526384,
        "ShelterName":"歷坵活動中心 Liqiu Activity Center",
        "ShelterVillages":"壢坵村",
        "ShelterCapacity":100,
        "ApplicableDisasterTypes":"水災",
        "ManagerName":"邱江南",
        "ManagerPhone":"089-771439",
        "Indoor":false,
        "Outdoor":false,
        "SuitableForVulnerable":false
    },
    {
        "ID":207,
        "District":"屏東縣來義鄉",
        "Village":"古樓村",
        "Address":"育英路2號",
        "Longitude":120.6258,
        "Latitude":22.5275,
        "ShelterName":"古樓國小",
        "ShelterVillages":"古樓村",
        "ShelterCapacity":200,
        "ApplicableDisasterTypes":"水災,震災,土石流",
        "ManagerName":"村長連瑞禎",
        "ManagerPhone":"08-7850318",
        "Indoor":true,
        "Outdoor":false,
        "SuitableForVulnerable":true
    },
    {
        "ID":208,
        "District":"高雄市林園區",
        "Village":"中厝里",
        "Address":"金潭路40號",
        "Longitude":120.396078,
        "Latitude":22.528055,
        "ShelterName":"高雄市林園區金潭國民小學",
        "ShelterVillages":"全區",
        "ShelterCapacity":260,
        "ApplicableDisasterTypes":"水災,震災",
        "ManagerName":"蘇劍煌",
        "ManagerPhone":"07-6412332#40",
        "Indoor":true,
        "Outdoor":false,
        "SuitableForVulnerable":false
    },
    {
        "ID":209,
        "District":"臺東縣太麻里鄉",
        "Village":"金崙村",
        "Address":"16鄰40號",
        "Longitude":120.937667,
        "Latitude":22.530918,
        "ShelterName":"金崙溫泉長老教會",
        "ShelterVillages":"金崙村上溫泉",
        "ShelterCapacity":20,
        "ApplicableDisasterTypes":"水災,土石流,海嘯",
        "ManagerName":"陳文龍",
        "ManagerPhone":"089-771305",
        "Indoor":true,
        "Outdoor":false,
        "SuitableForVulnerable":false
    },
    {
        "ID":210,
        "District":"臺東縣金峰鄉",
        "Village":"賓茂村",
        "Address":"68號No.68,Binmao,Jinfeng Township,Taitung County 964,TaiwanR.O.C.",
        "Longitude":120.95583,
        "Latitude":22.532403,
        "ShelterName":"賓茂國小 Binmao Elementary School",
        "ShelterVillages":"賓茂村",
        "ShelterCapacity":100,
        "ApplicableDisasterTypes":null,
        "ManagerName":"朱慧清",
        "ManagerPhone":"089-771007",
        "Indoor":false,
        "Outdoor":false,
        "SuitableForVulnerable":false
    },